QUERY,SEARCHVAL,BLK_NO,ROAD_NAME,BUILDING,ADDRESS,POSTAL,X,Y,LATITUDE,LONGITUDE
THE TRUMPS JALAN KEMBANGAN,THE TRUMPS,1,JALAN KEMBANGAN,THE TRUMPS,1 JALAN KEMBANGAN THE TRUMPS SINGAPORE 419154,419154,36921.9904419836,33587.4406810701,1.32002610262337,103.91348728953
PARC RIVIERA WEST COAST VALE,PARC RIVIERA,101,WEST COAST VALE,PARC RIVIERA,101 WEST COAST VALE PARC RIVIERA SINGAPORE 126753,126753,19024.3082316956,33674.9725421108,1.32081769238494,103.752667309254
D'LEEDON LEEDON HEIGHTS,D'LEEDON,1,LEEDON HEIGHTS,D'LEEDON,1 LEEDON HEIGHTS D'LEEDON SINGAPORE 267939,267939,24547.934373212,33152.1085903347,1.31609021863642,103.802300019532
368 THOMSON THOMSON ROAD,368 THOMSON,368,THOMSON ROAD,368 THOMSON,368 THOMSON ROAD 368 THOMSON SINGAPORE 298127,298127,28963.7693515504,34368.5353911072,1.3270913316471,103.841978573745
ONE LEICESTER LEICESTER ROAD,ONE LEICESTER,1,LEICESTER ROAD,ONE LEICESTER,1 LEICESTER ROAD ONE LEICESTER SINGAPORE 358828,358828,31788.1548196869,34627.2346674874,1.32943069562467,103.867357251861
ORCHARD BEL AIR ORCHARD BOULEVARD,ORCHARD BEL AIR,245,ORCHARD BOULEVARD,ORCHARD BEL AIR,245 ORCHARD BOULEVARD ORCHARD BEL AIR SINGAPORE 248648,248648,27071.2615811359,31629.2464523073,1.30231817080686,103.824973438871
CARIBBEAN AT KEPPEL BAY KEPPEL BAY DRIVE,CARIBBEAN AT KEPPEL BAY,2,KEPPEL BAY DRIVE,CARIBBEAN AT KEPPEL BAY,2 KEPPEL BAY DRIVE CARIBBEAN AT KEPPEL BAY SINGAPORE 098636,098636,26021.7114668665,27775.9428593945,1.26747019767944,103.815542991374
CORALS AT KEPPEL BAY KEPPEL BAY DRIVE,CORALS AT KEPPEL BAY,1,KEPPEL BAY DRIVE,CORALS AT KEPPEL BAY,1 KEPPEL BAY DRIVE CORALS AT KEPPEL BAY SINGAPORE 098012,098012,26123.1077897251,27490.6492547505,1.26489010829928,103.816454088109
THE SIERRA MOUNT SINAI DRIVE,THE SIERRA,80,MOUNT SINAI DRIVE,THE SIERRA,80 MOUNT SINAI DRIVE THE SIERRA SINGAPORE 277125,277125,22102.412318957,33374.9030763898,1.31810471986283,103.78032572661
VA RESIDENCES BOON TECK ROAD,VA RESIDENCES,9,BOON TECK ROAD,VA RESIDENCES,9 BOON TECK ROAD VA RESIDENCES SINGAPORE 329583,329583,29820.8707824666,34328.2166812532,1.32672666436714,103.84968009627
MARGARET VILLE MARGARET DRIVE,MARGARET VILLE,20,MARGARET DRIVE,MARGARET VILLE,20 MARGARET DRIVE MARGARET VILLE SINGAPORE 149312,149312,24604.3263509953,31319.5494068619,1.2995172080842,103.802806930224
D' IXORAS MINBU ROAD,D' IXORAS,23,MINBU ROAD,D' IXORAS,23 MINBU ROAD D' IXORAS SINGAPORE 308172,308172,29749.710873819,34039.2487552594,1.32411334495333,103.849040669227
WATERBANK AT DAKOTA DAKOTA CRESCENT,WATERBANK AT DAKOTA,70,DAKOTA CRESCENT,WATERBANK AT DAKOTA,70 DAKOTA CRESCENT WATERBANK AT DAKOTA SINGAPORE 399941,399941,34095.3144139107,32109.2049620729,1.30665815996221,103.888087858364
BOTANNIA WEST COAST PARK,BOTANNIA,29,WEST COAST PARK,BOTANNIA,29 WEST COAST PARK BOTANNIA SINGAPORE 127647,127647,19120.0706839403,33367.115305787,1.31803357100435,103.753527872969
THE LEGEND BUKIT TIMAH ROAD,THE LEGEND,361,BUKIT TIMAH ROAD,THE LEGEND,361 BUKIT TIMAH ROAD THE LEGEND SINGAPORE 259725,259725,27561.9551458824,33394.3415387478,1.31828107898793,103.829382520419
HORIZON RESIDENCES PASIR PANJANG HILL,HORIZON RESIDENCES,41,PASIR PANJANG HILL,HORIZON RESIDENCES,41 PASIR PANJANG HILL HORIZON RESIDENCES SINGAPORE 118862,118862,22520.4515538961,29402.4276818205,1.28217914161626,103.78408271893
TROPIKA EAST FOO KIM LIN ROAD,TROPIKA EAST,1,FOO KIM LIN ROAD,TROPIKA EAST,1 FOO KIM LIN ROAD TROPIKA EAST SINGAPORE 419684,419684,36184.9835624732,34579.3954835944,1.32899718944322,103.906865168799
GARDENVILLE WALSHE ROAD,GARDENVILLE,10,WALSHE ROAD,GARDENVILLE,10 WALSHE ROAD GARDENVILLE SINGAPORE 257654,257654,27330.5175160049,32750.8683890384,1.31246173086025,103.827302948052
THE SAIL @ MARINA BAY MARINA BOULEVARD,THE SAIL @ MARINA BAY,6,MARINA BOULEVARD,THE SAIL @ MARINA BAY,6 MARINA BOULEVARD THE SAIL @ MARINA BAY SINGAPORE 018985,018985,30152.3828112809,29246.5050088912,1.28076943504219,103.852658562152
EUHABITAT JALAN EUNOS,EUHABITAT,186,JALAN EUNOS,EUHABITAT,186 JALAN EUNOS EUHABITAT SINGAPORE 419537,419537,36156.7583952453,34497.757707024,1.32825889448877,103.906611528497
SPOTTISWOODE SUITES SPOTTISWOODE PARK ROAD,SPOTTISWOODE SUITES,16,SPOTTISWOODE PARK ROAD,SPOTTISWOODE SUITES,16 SPOTTISWOODE PARK ROAD SPOTTISWOODE SUITES SINGAPORE 088661,088661,28465.5867006639,28723.0007681884,1.27603511606189,103.837502046362
THE TRESOR DUCHESS ROAD,THE TRESOR,26,DUCHESS ROAD,THE TRESOR,26 DUCHESS ROAD THE TRESOR SINGAPORE 269029,269029,25060.8786894884,33985.1645598933,1.32362413503101,103.806909004363
HERITAGE VIEW DOVER RISE,HERITAGE VIEW,6,DOVER RISE,HERITAGE VIEW,6 DOVER RISE HERITAGE VIEW SINGAPORE 138678,138678,22495.5534737054,31783.8118785787,1.3037155308885,103.783858583197
KILLINEY 118 KILLINEY ROAD,KILLINEY 118,118,KILLINEY ROAD,KILLINEY 118,118 KILLINEY ROAD KILLINEY 118 SINGAPORE 239555,239555,28566.4137735525,31148.2267773021,1.29796800700412,103.838408057882
REGENCY SUITES KIM TIAN ROAD,REGENCY SUITES,38,KIM TIAN ROAD,REGENCY SUITES,38 KIM TIAN ROAD REGENCY SUITES SINGAPORE 169262,169262,27533.4061112283,29641.454312453,1.28434128785856,103.82912604887
THE PATERSON PATERSON ROAD,THE PATERSON EDGE,26,PATERSON ROAD,THE PATERSON EDGE,26 PATERSON ROAD THE PATERSON EDGE SINGAPORE 238518,238518,27594.5957763074,31659.6176801175,1.30259284877615,103.829675836055
ECHELON ALEXANDRA VIEW,ECHELON,5,ALEXANDRA VIEW,ECHELON,5 ALEXANDRA VIEW ECHELON SINGAPORE 158750,158750,26294.044502493,30373.7634495497,1.29096399148778,103.817989855708
NIN RESIDENCE PHENG GECK AVENUE,NIN RESIDENCE,81,PHENG GECK AVENUE,NIN RESIDENCE,81 PHENG GECK AVENUE NIN RESIDENCE SINGAPORE 348269,348269,32059.6465567052,34999.0754551273,1.33279345626326,103.869796804823
JERVOIS TREASURES JERVOIS ROAD,JERVOIS TREASURES,31,JERVOIS ROAD,JERVOIS TREASURES,31 JERVOIS ROAD JERVOIS TREASURES SINGAPORE 249080,249080,26910.8311276594,30579.024873089,1.29282033122383,103.823531934289
ONE DUSUN RESIDENCES JALAN DUSUN,ONE DUSUN RESIDENCES,1,JALAN DUSUN,ONE DUSUN RESIDENCES,1 JALAN DUSUN ONE DUSUN RESIDENCES SINGAPORE 329363,329363,29152.4788189977,34354.6110894848,1.32696539864482,103.84367423097
LUMIERE MISTRI ROAD,LUMIERE,2,MISTRI ROAD,LUMIERE,2 MISTRI ROAD LUMIERE SINGAPORE 079624,079624,29414.1345509551,28526.9923883434,1.27426245685335,103.846025087372
WOODSVILLE 28 WOODSVILLE CLOSE,WOODSVILLE 28,26,WOODSVILLE CLOSE,WOODSVILLE 28,26 WOODSVILLE CLOSE WOODSVILLE 28 SINGAPORE 357774,357774,31898.8743474251,34694.1654123776,1.33003597946809,103.868352136654
KERRISDALE STURDEE ROAD,KERRISDALE,30,STURDEE ROAD,KERRISDALE,30 STURDEE ROAD KERRISDALE SINGAPORE 207852,207852,30708.5465999004,32823.9673555251,1.3131227003568,103.857656215109
CENTRA SUITES LORONG 25A GEYLANG,CENTRA SUITES,38,LORONG 25A GEYLANG,CENTRA SUITES,38 LORONG 25A GEYLANG CENTRA SUITES SINGAPORE 388242,388242,33561.1334143626,32993.0751556456,1.31465166781856,103.883288149427
76 SHENTON SHENTON WAY,76 SHENTON,76,SHENTON WAY,76 SHENTON,76 SHENTON WAY 76 SHENTON SINGAPORE 079119,079119,29364.6884398069,28438.9366187733,1.2734661134853,103.845580792511
QUEENS STIRLING ROAD,QUEENS,10,STIRLING ROAD,QUEENS,10 STIRLING ROAD QUEENS SINGAPORE 148954,148954,24922.4587808242,30598.4692679718,1.29299604681606,103.805665563173
CAPE ROYALE COVE WAY,CAPE ROYALE,11,COVE WAY,CAPE ROYALE,11 COVE WAY CAPE ROYALE SINGAPORE 098202,098202,28754.7587236715,24880.5454325154,1.24128528590103,103.8401002733
EURO-ASIA COURT RIVER VALLEY CLOSE,EURO-ASIA COURT,3,RIVER VALLEY CLOSE,EURO-ASIA COURT,3 RIVER VALLEY CLOSE EURO-ASIA COURT SINGAPORE 238429,238429,28486.8691188591,30794.7981857657,1.29477172447814,103.83769330846
VERDURE HOLLAND ROAD,VERDURE,55,HOLLAND ROAD,VERDURE,55 HOLLAND ROAD VERDURE SINGAPORE 258865,258865,25104.6281542256,32368.0326049738,1.30899937042874,103.807302268297
SIMS GREEN LORONG 27A GEYLANG,SIMS GREEN,7,LORONG 27A GEYLANG,SIMS GREEN,7 LORONG 27A GEYLANG SIMS GREEN SINGAPORE 388133,388133,33710.4345723698,32966.3985287324,1.31441038654771,103.884629689864
THE FORESTA @ MOUNT FABER WISHART ROAD,THE FORESTA @ MOUNT FABER,100,WISHART ROAD,THE FORESTA @ MOUNT FABER,100 WISHART ROAD THE FORESTA @ MOUNT FABER SINGAPORE 098748,098748,25846.3535097167,28094.405966945,1.27035025509729,103.813967319772
ST MARTIN RESIDENCE ST. MARTIN'S DRIVE,SAINT MARTIN RESIDENCE,2,SAINT MARTIN'S DRIVE,SAINT MARTIN RESIDENCE,2 SAINT MARTIN'S DRIVE SAINT MARTIN RESIDENCE SINGAPORE 257989,257989,27020.0970052117,32062.883384617,1.30623982883747,103.824513688059
SKYSUITES17 JALAN RAJAH,,,,,,,,,,
CONCOURSE SKYLINE BEACH ROAD,CONCOURSE SKYLINE,298,BEACH ROAD,CONCOURSE SKYLINE,298 BEACH ROAD CONCOURSE SKYLINE SINGAPORE 199554,199554,31177.0260071084,31402.4437890444,1.30026689906653,103.861865589801
ASCENTIA SKY ALEXANDRA VIEW,ASCENTIA SKY,1,ALEXANDRA VIEW,ASCENTIA SKY,1 ALEXANDRA VIEW ASCENTIA SKY SINGAPORE 158748,158748,26183.8948603524,30371.6344903782,1.29094473172583,103.817000115258
ECOVILLE MARTABAN ROAD,ECOVILLE,10,MARTABAN ROAD,ECOVILLE,10 MARTABAN ROAD ECOVILLE SINGAPORE 328668,328668,29955.5608280338,34007.9462421257,1.32383024362223,103.850890339366
MARTIN MODERN MARTIN PLACE,MARTIN MODERN,8,MARTIN PLACE,MARTIN MODERN,8 MARTIN PLACE MARTIN MODERN SINGAPORE 237992,237992,28532.6770486329,30653.8086463548,1.2934966639073,103.8381049101
POLLEN & BLEU FARRER DRIVE,,,,,,,,,,
8 @ MOUNT SOPHIA MOUNT SOPHIA,CITADINES MOUNT SOPHIA SINGAPORE,8,WILKIE ROAD,CITADINES MOUNT SOPHIA SINGAPORE,8 WILKIE ROAD CITADINES MOUNT SOPHIA SINGAPORE SINGAPORE 228095,228095,29786.030880345,31603.5766898729,1.30208598515708,103.849366883599
NOVA 48 PROME ROAD,NOVA 48,8,PROME ROAD,NOVA 48,8 PROME ROAD NOVA 48 SINGAPORE 328316,328316,29756.2057172293,34139.7272923142,1.32502203689022,103.849099034618
LEONIE GARDENS LEONIE HILL,LEONIE GARDENS,23,LEONIE HILL,LEONIE GARDENS,23 LEONIE HILL LEONIE GARDENS SINGAPORE 239224,239224,27874.4360891311,31193.7760066185,1.29837994307162,103.832190331692
THE ORCHARD RESIDENCES ORCHARD BOULEVARD,THE ORCHARD RESIDENCES,238,ORCHARD BOULEVARD,THE ORCHARD RESIDENCES,238 ORCHARD BOULEVARD THE ORCHARD RESIDENCES SINGAPORE 237973,237973,27820.735479923,31797.1799454633,1.30383691559687,103.831707804361
D'CHATEAU @ SHELFORD SHELFORD ROAD,D'CHATEAU @ SHELFORD,25,SHELFORD ROAD,D'CHATEAU @ SHELFORD,25 SHELFORD ROAD D'CHATEAU @ SHELFORD SINGAPORE 288415,288415,25626.1535649579,34479.6513688955,1.32809614767202,103.81198826246
VALLEY PARK RIVER VALLEY ROAD,UE SQUARE (PARK WING),205,RIVER VALLEY ROAD,UE SQUARE (PARK WING),205 RIVER VALLEY ROAD UE SQUARE (PARK WING) SINGAPORE 238274,238274,28993.7696754877,30569.0842013396,1.29273043457202,103.842248021629
THE TRIZON RIDGEWOOD CLOSE,THE TRIZON,2,RIDGEWOOD CLOSE,THE TRIZON,2 RIDGEWOOD CLOSE THE TRIZON SINGAPORE 276693,276693,21891.6091302782,33206.2524438947,1.31657946252272,103.778431585714
PATERSON RESIDENCE PATERSON ROAD,FRASER RESIDENCE ORCHARD SINGAPORE,31,PATERSON ROAD,FRASER RESIDENCE ORCHARD SINGAPORE,31 PATERSON ROAD FRASER RESIDENCE ORCHARD SINGAPORE SINGAPORE 238522,238522,27633.8685759846,31557.9117460549,1.30167305661383,103.830028721396
WATERFRONT @ FABER FABER WALK,WATERFRONT @ FABER,18,FABER WALK,WATERFRONT @ FABER,18 FABER WALK WATERFRONT @ FABER SINGAPORE 128978,128978,19323.9203481833,33971.1264506541,1.32349608758894,103.755359395053
ASTORIA PARK LORONG MYDIN,ASTORIA PARK,28,LORONG MYDIN,ASTORIA PARK,28 LORONG MYDIN ASTORIA PARK SINGAPORE 416883,416883,36735.1355847027,33710.9665019158,1.32114327931913,103.911808337852
THE SORRENTO WEST COAST ROAD,THE SORRENTO,55,WEST COAST ROAD,THE SORRENTO,55 WEST COAST ROAD THE SORRENTO SINGAPORE 127365,127365,20521.6404453712,30904.522199519,1.29576313642746,103.766122279701
TANGLIN VIEW PRINCE CHARLES CRESCENT,TANGLIN VIEW,150,PRINCE CHARLES CRESCENT,TANGLIN VIEW,150 PRINCE CHARLES CRESCENT TANGLIN VIEW SINGAPORE 159012,159012,26336.0061282357,30469.3870020173,1.29182877953015,103.818366893396
ONE DRAYCOTT DRAYCOTT PARK,ONE DRAYCOTT,1,DRAYCOTT PARK,ONE DRAYCOTT,1 DRAYCOTT PARK ONE DRAYCOTT SINGAPORE 259385,259385,27710.321416676,32488.0176165476,1.31008460714385,103.830715676333
ONE-NORTH RESIDENCES ONE-NORTH GATEWAY,ONE-NORTH RESIDENCES,7,ONE-NORTH GATEWAY,ONE-NORTH RESIDENCES,7 ONE-NORTH GATEWAY ONE-NORTH RESIDENCES SINGAPORE 138642,138642,23168.743396882,31616.70648719,1.30220440131525,103.789907530412
HIGHLINE RESIDENCES KIM TIAN ROAD,HIGHLINE RESIDENCES,1,KIM TIAN ROAD,HIGHLINE RESIDENCES,1 KIM TIAN ROAD HIGHLINE RESIDENCES SINGAPORE 169280,169280,27603.5858517587,29605.2518667746,1.28401388660814,103.829756642021
TRE RESIDENCES GEYLANG EAST AVENUE 1,TRE RESIDENCES,7,GEYLANG EAST AVENUE 1,TRE RESIDENCES,7 GEYLANG EAST AVENUE 1 TRE RESIDENCES SINGAPORE 389782,389782,33714.7937371163,33276.5201431867,1.31721501497667,103.884668916461
WING FONG MANSIONS LORONG 14 GEYLANG,WING FONG MANSIONS,12,LORONG 14 GEYLANG,WING FONG MANSIONS,12 LORONG 14 GEYLANG WING FONG MANSIONS SINGAPORE 398924,398924,33092.6962612588,32542.3466496319,1.31057552074486,103.879078933752
FERRELL RESIDENCES BUKIT TIMAH ROAD,FERRELL RESIDENCES,327,BUKIT TIMAH ROAD,FERRELL RESIDENCES,327 BUKIT TIMAH ROAD FERRELL RESIDENCES SINGAPORE 259715,259715,27891.1187121086,33330.0041244347,1.3176992370965,103.832340224879
ALEX RESIDENCES ALEXANDRA VIEW,ALEX RESIDENCES,28,ALEXANDRA VIEW,ALEX RESIDENCES,28 ALEXANDRA VIEW ALEX RESIDENCES SINGAPORE 158744,158744,26406.5516573498,30330.1968942378,1.29056999681587,103.819000781728
WATERSCAPE AT CAVENAGH CAVENAGH ROAD,WATERSCAPE AT CAVENAGH,65,CAVENAGH ROAD,WATERSCAPE AT CAVENAGH,65 CAVENAGH ROAD WATERSCAPE AT CAVENAGH SINGAPORE 229619,229619,28833.0605446845,31810.3242714126,1.30395577762362,103.840804014831
STURDEE RESIDENCES BEATTY ROAD,STURDEE RESIDENCES,10,BEATTY ROAD,STURDEE RESIDENCES,10 BEATTY ROAD STURDEE RESIDENCES SINGAPORE 209955,209955,30863.3355249632,32801.2183627151,1.31291695250751,103.859047068258
DUCHESS RESIDENCES DUCHESS AVENUE,DUCHESS RESIDENCES,102,DUCHESS AVENUE,DUCHESS RESIDENCES,102 DUCHESS AVENUE DUCHESS RESIDENCES SINGAPORE 266310,266310,24461.1842433875,34084.686477324,1.3245241122412,103.801520418513
REFLECTIONS AT KEPPEL BAY KEPPEL BAY VIEW,REFLECTIONS AT KEPPEL BAY,1,KEPPEL BAY VIEW,REFLECTIONS AT KEPPEL BAY,1 KEPPEL BAY VIEW REFLECTIONS AT KEPPEL BAY SINGAPORE 098402,098402,25892.2692540484,27852.4581126701,1.26816216653267,103.814379904552
VIDA PECK HAY ROAD,VIDA,5,PECK HAY ROAD,VIDA,5 PECK HAY ROAD VIDA SINGAPORE 228307,228307,28641.3470101217,32333.3137747869,1.30868551490343,103.839081390501
PARK PLACE RESIDENCES AT PLQ PAYA LEBAR ROAD,PARK PLACE RESIDENCES AT PLQ,2,PAYA LEBAR ROAD,PARK PLACE RESIDENCES AT PLQ,2 PAYA LEBAR ROAD PARK PLACE RESIDENCES AT PLQ SINGAPORE 409053,409053,34613.7707721666,33124.1389756929,1.31583675363618,103.892746648427
CHANCERY PARK CHANCERY LANE,CHANCERY PARK,9,CHANCERY LANE,CHANCERY PARK,9 CHANCERY LANE CHANCERY PARK SINGAPORE 309499,309499,28393.3941089483,33473.19535698,1.31899420570811,103.836853428868
TREVISTA LORONG 3 TOA PAYOH,TREVISTA,21,LORONG 3 TOA PAYOH,TREVISTA,21 LORONG 3 TOA PAYOH TREVISTA SINGAPORE 319581,319581,29471.2359497417,35510.7108324487,1.33742074109903,103.846538493576
YONG AN PARK RIVER VALLEY ROAD,YONG AN PARK,325,RIVER VALLEY ROAD,YONG AN PARK,325 RIVER VALLEY ROAD YONG AN PARK SINGAPORE 238357,238357,28183.7211873177,30875.0444523208,1.29549744673762,103.834969393898
SOLEIL @ SINARAN SINARAN DRIVE,SOLEIL @ SINARAN,2,SINARAN DRIVE,SOLEIL @ SINARAN,2 SINARAN DRIVE SOLEIL @ SINARAN SINGAPORE 307467,307467,29330.2690810505,33540.2060093489,1.31960020004528,103.845271738384
THE INTERLACE DEPOT ROAD,THE INTERLACE,180,DEPOT ROAD,THE INTERLACE,180 DEPOT ROAD THE INTERLACE SINGAPORE 109684,109684,24628.4343157392,29404.8510879371,1.28220135422008,103.803023756097
2 RVG RIVER VALLEY GROVE,2 RVG,2,RIVER VALLEY GROVE,2 RVG,2 RIVER VALLEY GROVE 2 RVG SINGAPORE 238405,238405,28124.7525263485,30980.3680763338,1.29644995684098,103.834439535286
REGENT PARK JALAN LEMPENG,REGENT PARK,22,JALAN LEMPENG,REGENT PARK,22 JALAN LEMPENG REGENT PARK SINGAPORE 128803,128803,20012.3035279298,33281.5020414311,1.31725956103263,103.761545059068
PATERSON SUITES PATERSON ROAD,PATERSON SUITES,55,PATERSON ROAD,PATERSON SUITES,55 PATERSON ROAD PATERSON SUITES SINGAPORE 238550,238550,27717.3181940606,31536.3799802102,1.30147833178138,103.830778554467
EMERALD PARK INDUS ROAD,EMERALD PARK TOWER 2,2,INDUS ROAD,EMERALD PARK TOWER 2,2 INDUS ROAD EMERALD PARK TOWER 2 SINGAPORE 169586,169586,27640.1749709276,30209.8859570157,1.28948198551176,103.830085402755
LUMA RIVER VALLEY GROVE,LUMA,6,RIVER VALLEY GROVE,LUMA,6 RIVER VALLEY GROVE LUMA SINGAPORE 238403,238403,28142.2919148728,31018.9754646569,1.29679910840731,103.83459713454
THE CENTREN LORONG 27 GEYLANG,THE CENTREN,1,LORONG 27 GEYLANG,THE CENTREN,1 LORONG 27 GEYLANG THE CENTREN SINGAPORE 388153,388153,33591.4952288289,32914.3644141722,1.3139398304258,103.883560951253
SUITES 28 LORONG 30 GEYLANG,SUITES 28,28,LORONG 30 GEYLANG,SUITES 28,28 LORONG 30 GEYLANG SUITES 28 SINGAPORE 398361,398361,33856.3872741414,32775.5719671641,1.31268459175571,103.885941111431
GLENTREES MOUNT SINAI LANE,GLENTREES,11A,MOUNT SINAI LANE,GLENTREES,11A MOUNT SINAI LANE GLENTREES SINGAPORE 277050,277050,22612.3835625323,33168.5677750558,1.31623879085761,103.784908114868
MARINA BAY RESIDENCES MARINA BOULEVARD,MARINA BAY RESIDENCES,18,MARINA BOULEVARD,MARINA BAY RESIDENCES,18 MARINA BOULEVARD MARINA BAY RESIDENCES SINGAPORE 018980,018980,30411.5427663736,29120.0497012436,1.279625798918,103.854987203774
THE ASTON KAY POH ROAD,THE ASTON,2,KAY POH ROAD,THE ASTON,2 KAY POH ROAD THE ASTON SINGAPORE 248973,248973,27613.9570553079,30923.5882748738,1.29593645811863,103.829849815157
SIMS URBAN OASIS SIMS DRIVE,SIMS URBAN OASIS,2,SIMS DRIVE,SIMS URBAN OASIS,2 SIMS DRIVE SIMS URBAN OASIS SINGAPORE 387386,387386,33348.8567197006,33494.8509794157,1.31918958720539,103.881380824314
LEONIE TOWERS LEONIE HILL,HORIZON TOWERS,15,LEONIE HILL ROAD,HORIZON TOWERS,15 LEONIE HILL ROAD HORIZON TOWERS SINGAPORE 239194,239194,28006.5738172391,31183.9053749833,1.29829067681172,103.833377647901
THE MEZZO BALESTIER ROAD,THE MEZZO,205,BALESTIER ROAD,THE MEZZO,205 BALESTIER ROAD THE MEZZO SINGAPORE 329682,329682,30128.8407670297,33642.4183267783,1.32052452699851,103.852447326986
SOPHIA HILLS MOUNT SOPHIA,SOPHIA HILLS,5,MOUNT SOPHIA,SOPHIA HILLS,5 MOUNT SOPHIA SOPHIA HILLS SINGAPORE 228453,228453,29648.300355277,31449.2792865969,1.30069058142746,103.848129303731
GISBORNE LIGHT EWE BOON ROAD,GISBORNE LIGHT,27,EWE BOON ROAD,GISBORNE LIGHT,27 EWE BOON ROAD GISBORNE LIGHT SINGAPORE 259330,259330,27678.3123579994,33169.6965589728,1.31624947059146,103.83042805227
THE LEGACY BUKIT TIMAH ROAD,THE LEGACY,455,BUKIT TIMAH ROAD,THE LEGACY,455 BUKIT TIMAH ROAD THE LEGACY SINGAPORE 259750,259750,26811.5486299805,33699.9731702283,1.32104508345244,103.822639719508
REZI 3TWO LORONG 32 GEYLANG,REZI 3TWO,48,LORONG 32 GEYLANG,REZI 3TWO,48 LORONG 32 GEYLANG REZI 3TWO SINGAPORE 398308,398308,33953.5634833695,32713.9771348555,1.31212753143258,103.886814275583
SKY GREEN MACPHERSON ROAD,SKY GREEN,568,MACPHERSON ROAD,SKY GREEN,568 MACPHERSON ROAD SKY GREEN SINGAPORE 368236,368236,33935.7145139072,34977.4664151203,1.33259772264628,103.886654330662
WESTCOVE CONDOMINIUM WEST COAST CRESCENT,WESTCOVE CONDOMINIUM,10,WEST COAST CRESCENT,WESTCOVE CONDOMINIUM,10 WEST COAST CRESCENT WESTCOVE CONDOMINIUM SINGAPORE 128041,128041,20544.9508487433,31098.8855749853,1.29752089480499,103.766331687461
RIVERBAY MAR THOMA ROAD,RIVERBAY,23,MAR THOMA ROAD,RIVERBAY,23 MAR THOMA ROAD RIVERBAY SINGAPORE 328704,328704,31252.1037733005,34467.6268372722,1.32798732117053,103.862540519298
EIGHT RIVERSUITES WHAMPOA EAST,EIGHT RIVERSUITES,2,WHAMPOA EAST,EIGHT RIVERSUITES,2 WHAMPOA EAST EIGHT RIVERSUITES SINGAPORE 338517,338517,31497.3523512008,33785.7240631077,1.3218204074661,103.864744134712
EMERALD GARDEN CLUB STREET,EMERALD GARDEN,33,CLUB STREET,EMERALD GARDEN,33 CLUB STREET EMERALD GARDEN SINGAPORE 069415,069415,29463.9317404469,29332.6599188168,1.28154862924483,103.846472570061
REZI 35 LORONG 35 GEYLANG,REZI 35,20,LORONG 35 GEYLANG,REZI 35,20 LORONG 35 GEYLANG REZI 35 SINGAPORE 387949,387949,34178.6793724364,33111.3526594546,1.31572120937619,103.888837131268
# 1 SUITES LORONG 20 GEYLANG,# 1 SUITES,1,LORONG 20 GEYLANG,# 1 SUITES,1 LORONG 20 GEYLANG # 1 SUITES SINGAPORE 398721,398721,33362.595902334,32743.0199916642,1.31239029325188,103.881504147527
HILLTOPS CAIRNHILL CIRCLE,HILLTOPS,101,CAIRNHILL CIRCLE,HILLTOPS,101 CAIRNHILL CIRCLE HILLTOPS SINGAPORE 229809,229809,28580.6810114291,32175.8816072401,1.30726175508578,103.838536274396
SPOTTISWOODE 18 SPOTTISWOODE PARK ROAD,SPOTTISWOODE 18,18,SPOTTISWOODE PARK ROAD,SPOTTISWOODE 18,18 SPOTTISWOODE PARK ROAD SPOTTISWOODE 18 SINGAPORE 088642,088642,28472.0209475709,28674.3665654343,1.27559528527257,103.837559859708
BALMORAL HEIGHTS BALMORAL CRESCENT,BALMORAL HEIGHTS,8,BALMORAL CRESCENT,BALMORAL HEIGHTS,8 BALMORAL CRESCENT BALMORAL HEIGHTS SINGAPORE 259928,259928,28158.3242604882,33038.4608167782,1.31506262218241,103.834741202363
THE BEACON CANTONMENT ROAD,THE BEACON,130,CANTONMENT ROAD,THE BEACON,130 CANTONMENT ROAD THE BEACON SINGAPORE 089775,089775,28797.1200381396,28705.2784702368,1.27587483521415,103.840480994349
BLISS LOFT KIM KEAT CLOSE,BLISS LOFT,25,KIM KEAT CLOSE,BLISS LOFT,25 KIM KEAT CLOSE BLISS LOFT SINGAPORE 328933,328933,30182.4729403267,33941.5158270076,1.32322945510697,103.852929261304
FARRER PARK SUITES OWEN ROAD,FARRER PARK SUITES,80,OWEN ROAD,FARRER PARK SUITES,80 OWEN ROAD FARRER PARK SUITES SINGAPORE 218896,218896,30260.8459516373,32843.3120476715,1.31329768304541,103.853633404104
PARC ESTA SIMS AVENUE,PARC ESTA,900,SIMS AVENUE,PARC ESTA,900 SIMS AVENUE PARC ESTA SINGAPORE 408966,408966,35802.8436090862,33412.7106635105,1.31844621299537,103.90343113612
THE LINCOLN RESIDENCES SURREY ROAD,THE LINCOLN RESIDENCES,28,SURREY ROAD,THE LINCOLN RESIDENCES,28 SURREY ROAD THE LINCOLN RESIDENCES SINGAPORE 307762,307762,29010.6605421929,33072.9770936184,1.31537475902919,103.842399874258
THE LAURELS CAIRNHILL ROAD,THE LAURELS,38,CAIRNHILL ROAD,THE LAURELS,38 CAIRNHILL ROAD THE LAURELS SINGAPORE 229658,229658,28457.7702057455,31900.8369234893,1.30477434995815,103.83743185829
V ON SHENTON SHENTON WAY,V ON SHENTON,5A,SHENTON WAY,V ON SHENTON,5A SHENTON WAY V ON SHENTON SINGAPORE 068814,068814,29765.3991632639,28838.9204263333,1.27708340707631,103.849181343548
SIMSVILLE GEYLANG EAST AVENUE 2,SIMSVILLE,2,GEYLANG EAST AVENUE 2,SIMSVILLE,2 GEYLANG EAST AVENUE 2 SIMSVILLE SINGAPORE 389754,389754,34363.6909397766,33256.2031223327,1.31703114737635,103.890499582849
ONE BALMORAL BALMORAL ROAD,ONE BALMORAL,1,BALMORAL ROAD,ONE BALMORAL,1 BALMORAL ROAD ONE BALMORAL SINGAPORE 259784,259784,27620.4461175334,32864.3414860591,1.31348794645771,103.829908098471
THE CLEMENT CANOPY CLEMENTI AVENUE 1,THE CLEMENT CANOPY,16,CLEMENTI AVENUE 1,THE CLEMENT CANOPY,16 CLEMENTI AVENUE 1 THE CLEMENT CANOPY SINGAPORE 129960,129960,20783.9668250447,32183.7145376746,1.30733175591803,103.768479099284
ROCHELLE AT NEWTON KENG LEE ROAD,ROCHELLE AT NEWTON,188,KENG LEE ROAD,ROCHELLE AT NEWTON,188 KENG LEE ROAD ROCHELLE AT NEWTON SINGAPORE 308414,308414,28957.5795186115,32925.8568043746,1.31404425678498,103.841922909924
OXLEY EDGE RIVER VALLEY ROAD,OXLEY EDGE,308,RIVER VALLEY ROAD,OXLEY EDGE,308 RIVER VALLEY ROAD OXLEY EDGE SINGAPORE 238349,238349,28923.3288130611,30889.816469362,1.29563102657533,103.841615089993
CITY GATE BEACH ROAD,CITY GATE,371,BEACH ROAD,CITY GATE,371 BEACH ROAD CITY GATE SINGAPORE 199597,199597,31228.8929515947,31629.0129348133,1.30231590504573,103.862331661034
THE ASANA QUEEN'S ROAD,THE ASANA,19,QUEEN'S ROAD,THE ASANA,19 QUEEN'S ROAD THE ASANA SINGAPORE 266745,266745,25523.5313282236,33792.9812662229,1.32188613848343,103.811066200681
VILLAGE TOWER MOUNT SINAI RISE,VILLAGE TOWER,35,MOUNT SINAI RISE,VILLAGE TOWER,35 MOUNT SINAI RISE VILLAGE TOWER SINGAPORE 276955,276955,21821.2533208868,33033.535701273,1.31501745994075,103.777799437784
MARINA ONE RESIDENCES MARINA WAY,MARINA ONE RESIDENCES,21,MARINA WAY,MARINA ONE RESIDENCES,21 MARINA WAY MARINA ONE RESIDENCES SINGAPORE 018978,018978,30226.7704674443,28798.1854408979,1.27671498507474,103.853326932298
E MAISON BRADDELL ROAD,E MAISON,28,BRADDELL ROAD,E MAISON,28 BRADDELL ROAD E MAISON SINGAPORE 359966,359966,31995.1416696385,36158.9400509764,1.34328286670471,103.869217344339
NOVA 88 BHAMO ROAD,NOVA 88,8,BHAMO ROAD,NOVA 88,8 BHAMO ROAD NOVA 88 SINGAPORE 329640,329640,29797.5157338185,34107.0864197463,1.32472684199302,103.849470225477
ST REGIS RESIDENCES SINGAPORE TANGLIN ROAD,SAINT REGIS RESIDENCES SINGAPORE,31,TANGLIN ROAD,SAINT REGIS RESIDENCES SINGAPORE,31 TANGLIN ROAD SAINT REGIS RESIDENCES SINGAPORE SINGAPORE 247912,247912,27161.1942078406,31939.9952799212,1.30512847628769,103.82578151636
PARK COLONIAL WOODLEIGH LANE,PARK COLONIAL,2,WOODLEIGH LANE,PARK COLONIAL,2 WOODLEIGH LANE PARK COLONIAL SINGAPORE 357685,357685,31953.8835021053,35628.1605977062,1.33848269211186,103.86884654561
BURLINGTON SQUARE BENCOOLEN STREET,BURLINGTON SQUARE,175,BENCOOLEN STREET,BURLINGTON SQUARE,175 BENCOOLEN STREET BURLINGTON SQUARE SINGAPORE 189649,189649,30157.000343537,31620.9711250234,1.30224327074302,103.85270021499
EURO-ASIA PARK WOODLEIGH CLOSE,EURO-ASIA PARK,25,WOODLEIGH CLOSE,EURO-ASIA PARK,25 WOODLEIGH CLOSE EURO-ASIA PARK SINGAPORE 357920,357920,31824.8649805225,35395.8168957345,1.33638147508185,103.867687209306
BARTLEY RIDGE MOUNT VERNON ROAD,BARTLEY RIDGE,30,MOUNT VERNON ROAD,BARTLEY RIDGE,30 MOUNT VERNON ROAD BARTLEY RIDGE SINGAPORE 368055,368055,33257.3192844996,35872.1925540008,1.34068943096191,103.880558721941
THE POIZ RESIDENCES MEYAPPA CHETTIAR ROAD,THE POIZ RESIDENCES,2,MEYAPPA CHETTIAR ROAD,THE POIZ RESIDENCES,2 MEYAPPA CHETTIAR ROAD THE POIZ RESIDENCES SINGAPORE 358472,358472,31933.0762609867,34914.3555805776,1.33202729656296,103.868659488195
MEDGE MINBU ROAD,MEDGE,2,MINBU ROAD,MEDGE,2 MINBU ROAD MEDGE SINGAPORE 308186,308186,29898.8575440375,33957.5324332714,1.32337432256355,103.850380826925
SOUTHBANK NORTH BRIDGE ROAD,SOUTHBANK,881,NORTH BRIDGE ROAD,SOUTHBANK,881 NORTH BRIDGE ROAD SOUTHBANK SINGAPORE 198784,198784,31448.8733626679,32070.8866632637,1.30631203112933,103.864308334438
GALLOP GABLES FARRER ROAD,GALLOP GABLES,70,FARRER ROAD,GALLOP GABLES,70 FARRER ROAD GALLOP GABLES SINGAPORE 268850,268850,25120.4160253368,33124.7262956481,1.3158426419275,103.807444059548
THE TRILINQ JALAN LEMPENG,THE TRILINQ,28,JALAN LEMPENG,THE TRILINQ,28 JALAN LEMPENG THE TRILINQ SINGAPORE 128807,128807,20071.9799451632,33390.7419793215,1.31824750315887,103.762081253712
CASSIA EDGE GUILLEMARD ROAD,CASSIA EDGE,343,GUILLEMARD ROAD,CASSIA EDGE,343 GUILLEMARD ROAD CASSIA EDGE SINGAPORE 399764,399764,33843.8147709416,32652.7956723999,1.3115742491255,103.885828118166
THE ROCHESTER RESIDENCES ROCHESTER DRIVE,THE ROCHESTER RESIDENCES,33,ROCHESTER DRIVE,THE ROCHESTER RESIDENCES,33 ROCHESTER DRIVE THE ROCHESTER RESIDENCES SINGAPORE 138638,138638,22994.3604017552,31949.1344251912,1.30521073390523,103.788340566447
THE FORD @ HOLLAND FORD AVENUE,THE FORD @ HOLLAND,1,FORD AVENUE,THE FORD @ HOLLAND,1 FORD AVENUE THE FORD @ HOLLAND SINGAPORE 268685,268685,23589.6891452251,32867.374459099,1.31351506153359,103.793689742252
QUEENS PEAK DUNDEE ROAD,QUEENS PEAK,1,DUNDEE ROAD,QUEENS PEAK,1 DUNDEE ROAD QUEENS PEAK SINGAPORE 149456,149456,25052.0848413752,30791.981780149,1.29474611826682,103.806830290183
HILLCREST ARCADIA ARCADIA ROAD,HILLCREST ARCADIA,251,ARCADIA ROAD,HILLCREST ARCADIA,251 ARCADIA ROAD HILLCREST ARCADIA SINGAPORE 289847,289847,25342.8329182947,35228.8878456187,1.33487195290402,103.809442405442
MOONSTONE ROYALE MOONSTONE LANE,MOONSTONE ROYALE,36,MOONSTONE LANE,MOONSTONE ROYALE,36 MOONSTONE LANE MOONSTONE ROYALE SINGAPORE 328468,328468,31646.9717165204,34453.3200391419,1.32785789082303,103.866088622774
LEIGHWOODS MOUNT SINAI RISE,LEIGHWOODS,37,MOUNT SINAI RISE,LEIGHWOODS,37 MOUNT SINAI RISE LEIGHWOODS SINGAPORE 276956,276956,21760.8899112269,33035.2416351028,1.31503287559433,103.777257042068
VISIONCREST OXLEY RISE,VISIONCREST,33,OXLEY RISE,VISIONCREST,33 OXLEY RISE VISIONCREST SINGAPORE 238710,238710,29053.7312776623,31182.9029599,1.29828159353819,103.842786822646
ARDMORE PARK ARDMORE PARK,ARDMORE PARK (ROAD),,ARDMORE PARK (ROAD),NIL,ARDMORE PARK (ROAD),NIL,27460.3284855573,32413.1698440507,1.30941005472732,103.828468419452
DUO RESIDENCES FRASER STREET,DUO RESIDENCES,1,FRASER STREET,DUO RESIDENCES,1 FRASER STREET DUO RESIDENCES SINGAPORE 189350,189350,30731.1894428916,31280.3711643666,1.29916295967817,103.857859536947
REGENT RESIDENCES SERANGOON ROAD,REGENT RESIDENCES,1091,SERANGOON ROAD,REGENT RESIDENCES,1091 SERANGOON ROAD REGENT RESIDENCES SINGAPORE 328190,328190,31476.4118098821,34052.5411824528,1.32423340916268,103.864556003087
THE OCEANFRONT @ SENTOSA COVE OCEAN DRIVE,THE OCEANFRONT @ SENTOSA COVE,281,OCEAN DRIVE,THE OCEANFRONT @ SENTOSA COVE,281 OCEAN DRIVE THE OCEANFRONT @ SENTOSA COVE SINGAPORE 098527,098527,29023.0695074778,25152.6405617893,1.24374601223412,103.842511120506
TWIN VEW WEST COAST VALE,TWIN VEW,91,WEST COAST VALE,TWIN VEW,91 WEST COAST VALE TWIN VEW SINGAPORE 126755,126755,18967.9870204581,33590.0185144395,1.32004938238057,103.75216125907
CYAN KENG CHIN ROAD,CYAN,6,KENG CHIN ROAD,CYAN,6 KENG CHIN ROAD CYAN SINGAPORE 258709,258709,27669.9586063698,33392.1852475889,1.31826157961172,103.830352987178
ICON GOPENG STREET,ICON,12,GOPENG STREET,ICON,12 GOPENG STREET ICON SINGAPORE 078877,078877,29243.993492675,28627.3402887806,1.27516997523174,103.844496312645
INTERNATIONAL PLAZA ANSON ROAD,OCBC INTERNATIONAL PLAZA,10,ANSON ROAD,OCBC INTERNATIONAL PLAZA,10 ANSON ROAD OCBC INTERNATIONAL PLAZA SINGAPORE 079903,079903,29406.3429968543,28698.245008057,1.27581120588262,103.845955084997
MURANO PASIR PANJANG ROAD,MURANO,349A,PASIR PANJANG ROAD,MURANO,349A PASIR PANJANG ROAD MURANO SINGAPORE 117484,117484,21574.8969347822,30170.3142004628,1.28912345558753,103.775586391917
VACANZA @ EAST LENGKONG TUJOH,VACANZA @ EAST,36,LENGKONG TUJOH,VACANZA @ EAST,36 LENGKONG TUJOH VACANZA @ EAST SINGAPORE 417391,417391,37000.8554896377,34581.9260989092,1.32901984483655,103.914196223923
SPOTTISWOODE RESIDENCES SPOTTISWOODE PARK ROAD,SPOTTISWOODE RESIDENCES,48,SPOTTISWOODE PARK ROAD,SPOTTISWOODE RESIDENCES,48 SPOTTISWOODE PARK ROAD SPOTTISWOODE RESIDENCES SINGAPORE 088660,088660,28391.0410153577,28638.5254892148,1.27527115223131,103.83683222505
CAIRNHILL PLAZA CAIRNHILL ROAD,CAIRNHILL PLAZA,53,CAIRNHILL ROAD,CAIRNHILL PLAZA,53 CAIRNHILL ROAD CAIRNHILL PLAZA SINGAPORE 229664,229664,28409.1002262356,32054.3009281009,1.30616222501617,103.836994537802
FOURTH AVENUE RESIDENCES FOURTH AVENUE,FOURTH AVENUE RESIDENCES,2,FOURTH AVENUE,FOURTH AVENUE RESIDENCES,2 FOURTH AVENUE FOURTH AVENUE RESIDENCES SINGAPORE 268660,268660,23957.6775449691,34658.4059689101,1.32971256461087,103.796996065203
ATRIUM RESIDENCES LORONG 28 GEYLANG,ATRIUM RESIDENCES,1,LORONG 28 GEYLANG,ATRIUM RESIDENCES,1 LORONG 28 GEYLANG ATRIUM RESIDENCES SINGAPORE 398406,398406,33831.0222497666,32814.9962581005,1.31304113579468,103.885713201642
THE TESSARINA WILBY ROAD,THE TESSARINA,20,WILBY ROAD,THE TESSARINA,20 WILBY ROAD THE TESSARINA SINGAPORE 276305,276305,23108.2952671358,34989.4619500153,1.33270639181925,103.789363841721
LE SOMME SOMME ROAD,LE SOMME,60,SOMME ROAD,LE SOMME,60 SOMME ROAD LE SOMME SINGAPORE 207876,207876,30802.891269519,32610.5024608951,1.31119219091346,103.858503929457
TERESA VILLE LOWER DELTA ROAD,TERESA VILLE,1001,LOWER DELTA ROAD,TERESA VILLE,1001 LOWER DELTA ROAD TERESA VILLE SINGAPORE 099307,099307,26927.233711252,28754.1092635449,1.27631643556314,103.823679380408
SANT RITZ PHENG GECK AVENUE,SANT RITZ,1,PHENG GECK AVENUE,SANT RITZ,1 PHENG GECK AVENUE SANT RITZ SINGAPORE 348196,348196,31996.9185818899,34650.8350986801,1.32964410279631,103.869233112933
STIRLING RESIDENCES STIRLING ROAD,MDIS RESIDENCES @ STIRLING,503,STIRLING ROAD,MDIS RESIDENCES @ STIRLING,503 STIRLING ROAD MDIS RESIDENCES @ STIRLING SINGAPORE 148959,148959,24371.2786459923,31016.0042383038,1.29677202648703,103.800712927589
THE BALMORAL SPRING BALMORAL CRESCENT,THE BALMORAL SPRING,3,BALMORAL CRESCENT,THE BALMORAL SPRING,3 BALMORAL CRESCENT THE BALMORAL SPRING SINGAPORE 259888,259888,28108.7497525532,33083.1042464152,1.31546636181029,103.834295750594
SHELFORD REGENCY SHELFORD ROAD,SHELFORD REGENCY,65,SHELFORD ROAD,SHELFORD REGENCY,65 SHELFORD ROAD SHELFORD REGENCY SINGAPORE 288455,288455,25553.2178034382,34313.9176619928,1.32659730501812,103.811332907782
BLISS RESIDENCES JALAN MASJID,BLISS RESIDENCES,17,JALAN MASJID,BLISS RESIDENCES,17 JALAN MASJID BLISS RESIDENCES SINGAPORE 418942,418942,36770.6842721989,33598.7914473768,1.32012879856897,103.91212772924
PRESTIGE HEIGHTS BALESTIER ROAD,PRESTIGE HEIGHTS,348,BALESTIER ROAD,PRESTIGE HEIGHTS,348 BALESTIER ROAD PRESTIGE HEIGHTS SINGAPORE 329778,329778,30124.8706669454,34173.75831284,1.32532977793951,103.852411690265
AIRSTREAM ST. MICHAEL'S ROAD,AIRSTREAM,26,SAINT MICHAEL'S ROAD,AIRSTREAM,26 SAINT MICHAEL'S ROAD AIRSTREAM SINGAPORE 327994,327994,31418.4865165791,34394.5712750722,1.32732661439014,103.864035551424
SAINT MARTIN RESIDENCE ST. MARTIN'S DRIVE,SAINT MARTIN RESIDENCE,2,SAINT MARTIN'S DRIVE,SAINT MARTIN RESIDENCE,2 SAINT MARTIN'S DRIVE SAINT MARTIN RESIDENCE SINGAPORE 257989,257989,27020.0970052117,32062.883384617,1.30623982883747,103.824513688059
CUBE 8 THOMSON ROAD,CUBE 8,376,THOMSON ROAD,CUBE 8,376 THOMSON ROAD CUBE 8 SINGAPORE 298130,298130,28901.4230560092,34509.2170748543,1.3283636088892,103.841418362322
PARC HAVEN LORONG LIMAU,PARC HAVEN,12,LORONG LIMAU,PARC HAVEN,12 LORONG LIMAU PARC HAVEN SINGAPORE 328741,328741,30326.057111837,34067.4514031075,1.32436836124439,103.854219451062
COMMONWEALTH TOWERS COMMONWEALTH AVENUE,COMMONWEALTH TOWERS,230,COMMONWEALTH AVENUE,COMMONWEALTH TOWERS,230 COMMONWEALTH AVENUE COMMONWEALTH TOWERS SINGAPORE 149739,149739,24963.0428500911,30901.2546193358,1.29573433474414,103.806030198974
ROBIN SUITES ROBIN ROAD,ROBIN SUITES,25,ROBIN ROAD,ROBIN SUITES,25 ROBIN ROAD ROBIN SUITES SINGAPORE 258203,258203,27493.7303236155,33329.1739341766,1.31769172514138,103.828769486315
DUKES RESIDENCE DUKE'S ROAD,DUKES RESIDENCE,25,DUKE'S ROAD,DUKES RESIDENCE,25 DUKE'S ROAD DUKES RESIDENCE SINGAPORE 268906,268906,25548.0639225105,33755.5691000409,1.32154779808392,103.811286641965
CARABELLE WEST COAST WAY,CARABELLE,51,WEST COAST WAY,CARABELLE,51 WEST COAST WAY CARABELLE SINGAPORE 127015,127015,19427.4081281796,33366.2111103088,1.3180254812967,103.756289455625
LEONIE SUITES LEONIE HILL,LEONIE SUITES,21,LEONIE HILL,LEONIE SUITES,21 LEONIE HILL LEONIE SUITES SINGAPORE 239223,239223,27828.1404513353,31236.5913711097,1.29876714993881,103.831774344575
ALEXIS ALEXANDRA ROAD,ALEXIS,354,ALEXANDRA ROAD,ALEXIS,354 ALEXANDRA ROAD ALEXIS SINGAPORE 159948,159948,25110.0289613642,30411.3465087675,1.29130379243474,103.807350978054
LEICESTER SUITES LEICESTER ROAD,LEICESTER SUITES,10,LEICESTER ROAD,LEICESTER SUITES,10 LEICESTER ROAD LEICESTER SUITES SINGAPORE 358844,358844,31758.7689055512,34734.9217064735,1.33040458254512,103.867093216382
THE REGALIA RIVER VALLEY CLOSE,THE REGALIA,2,RIVER VALLEY CLOSE,THE REGALIA,2 RIVER VALLEY CLOSE THE REGALIA SINGAPORE 238428,238428,28400.9789932556,30842.4709865507,1.29520286174263,103.836921549212
LE REGAL GEYLANG ROAD,LE REGAL,340,GEYLANG ROAD,LE REGAL,340 GEYLANG ROAD LE REGAL SINGAPORE 389365,389365,33236.1662619347,32755.4455438033,1.31250268727998,103.880368117228
REZI 26 LORONG 26 GEYLANG,REZI 26,5,LORONG 26 GEYLANG,REZI 26,5 LORONG 26 GEYLANG REZI 26 SINGAPORE 398480,398480,33763.2950634211,32785.5506857689,1.31277485329606,103.885104634024
SOMMERVILLE PARK FARRER DRIVE,SOMMERVILLE PARK,101,FARRER DRIVE,SOMMERVILLE PARK,101 FARRER DRIVE SOMMERVILLE PARK SINGAPORE 259294,259294,24998.2005660422,32700.4217999559,1.31200537055565,103.806345933042
PRISTINE HEIGHTS MERGUI ROAD,PRISTINE HEIGHTS,77,MERGUI ROAD,PRISTINE HEIGHTS,77 MERGUI ROAD PRISTINE HEIGHTS SINGAPORE 219053,219053,30067.3825038634,33245.9878594354,1.31693935432289,103.851895065804
GUILLEMARD EDGE LORONG 30 GEYLANG,GUILLEMARD EDGE,38,LORONG 30 GEYLANG,GUILLEMARD EDGE,38 LORONG 30 GEYLANG GUILLEMARD EDGE SINGAPORE 398371,398371,33857.3087526383,32700.3639881071,1.31200443744473,103.885949377155
D'WEAVE LORONG 39 GEYLANG,D'WEAVE,5,LORONG 39 GEYLANG,D'WEAVE,5 LORONG 39 GEYLANG D'WEAVE SINGAPORE 387866,387866,34359.096592797,33091.4388384111,1.31554107907724,103.890458266408
RIDGEWOOD RIDGEWOOD CLOSE,RIDGEWOOD CLOSE,,RIDGEWOOD CLOSE,NIL,RIDGEWOOD CLOSE,NIL,21869.4792993437,33291.054692762,1.31734637935576,103.778232721046
BLUE HORIZON WEST COAST CRESCENT,BLUE HORIZON,21,WEST COAST CRESCENT,BLUE HORIZON,21 WEST COAST CRESCENT BLUE HORIZON SINGAPORE 128045,128045,20445.2826158805,31035.8721730821,1.29695100013987,103.765436140212
RIVERGATE ROBERTSON QUAY,RIVERGATE,93,ROBERTSON QUAY,RIVERGATE,93 ROBERTSON QUAY RIVERGATE SINGAPORE 238255,238255,28406.5215150947,30458.8573758416,1.29173359502464,103.836971346231
SUITES @ EUNOS JALAN YASIN,SUITES @ EUNOS,1,JALAN YASIN,SUITES @ EUNOS,1 JALAN YASIN SUITES @ EUNOS SINGAPORE 417958,417958,36063.399311712,33643.5091849118,1.3205334041426,103.905772422058
TIARA KIM SENG WALK,TIARA,1,KIM SENG WALK,TIARA,1 KIM SENG WALK TIARA SINGAPORE 239403,239403,27743.3409114536,30846.4165695682,1.29523854569476,103.831012386123
JUI RESIDENCES SERANGOON ROAD,JUI RESIDENCES,1177,SERANGOON ROAD,JUI RESIDENCES,1177 SERANGOON ROAD JUI RESIDENCES SINGAPORE 328231,328231,31652.9893548992,34277.5963236764,1.32626870727644,103.866142673614
VISTA RESIDENCES JALAN DATOH,VISTA RESIDENCES,26,JALAN DATOH,VISTA RESIDENCES,26 JALAN DATOH VISTA RESIDENCES SINGAPORE 329425,329425,29107.8412008146,34461.0644659903,1.32792812694096,103.843273141429
THE METROPOLITAN CONDOMINIUM ALEXANDRA VIEW,THE METROPOLITAN CONDOMINIUM,6,ALEXANDRA VIEW,THE METROPOLITAN CONDOMINIUM,6 ALEXANDRA VIEW THE METROPOLITAN CONDOMINIUM SINGAPORE 158746,158746,26031.7349820863,30328.3642888963,1.29055340203602,103.81563289788
STARVILLE LENGKONG TIGA,STARVILLE,60,LENGKONG TIGA,STARVILLE,60 LENGKONG TIGA STARVILLE SINGAPORE 417454,417454,36675.4740290493,34440.3274163269,1.32773937225717,103.911272453985
DUCHESS CREST DUCHESS AVENUE,DUCHESS CREST,84,DUCHESS AVENUE,DUCHESS CREST,84 DUCHESS AVENUE DUCHESS CREST SINGAPORE 266474,266474,24620.458005866,34065.9597968701,1.32435477286284,103.802951580752
TRIBECA KIM SENG ROAD,TRIBECA,60,KIM SENG ROAD,TRIBECA,60 KIM SENG ROAD TRIBECA SINGAPORE 239497,239497,28131.3586348668,30385.050320141,1.29106611229714,103.834498891605
SEAHILL WEST COAST CRESCENT,SEAHILL,101,WEST COAST CRESCENT,SEAHILL,101 WEST COAST CRESCENT SEAHILL SINGAPORE 126768,126768,20387.5895990841,31245.5223634578,1.29884698729343,103.764917692526
THE RIVERINE BY THE PARK KALLANG ROAD,THE RIVERINE BY THE PARK,398,KALLANG ROAD,THE RIVERINE BY THE PARK,398 KALLANG ROAD THE RIVERINE BY THE PARK SINGAPORE 339098,339098,31995.5130577981,32438.6672127638,1.30963804234283,103.869220196792
CHELSEA GARDENS WALSHE ROAD,CHELSEA GARDENS,2,WALSHE ROAD,CHELSEA GARDENS,2 WALSHE ROAD CHELSEA GARDENS SINGAPORE 257662,257662,27336.602984935,32806.5625384562,1.31296540922295,103.827357627803
SPOTTISWOODE PARK SPOTTISWOODE PARK ROAD,SPOTTISWOODE PARK ROAD,,SPOTTISWOODE PARK ROAD,NIL,SPOTTISWOODE PARK ROAD,NIL,28514.2342845335,28433.9242457647,1.27342074069167,103.837938952301
VIIO @ BALESTIER BALESTIER ROAD,VIIO @ BALESTIER,520,BALESTIER ROAD,VIIO @ BALESTIER,520 BALESTIER ROAD VIIO @ BALESTIER SINGAPORE 329853,329853,29400.5536698774,34355.887853574,1.32697693485952,103.845903319079
THE LENOX CHANGI ROAD,THE LENOX,396,CHANGI ROAD,THE LENOX,396 CHANGI ROAD THE LENOX SINGAPORE 415899,415899,36684.266817783,33390.3509472385,1.31824376273926,103.911351165333
EON SHENTON SHENTON WAY,EON SHENTON,70,SHENTON WAY,EON SHENTON,70 SHENTON WAY EON SHENTON SINGAPORE 079118,079118,29437.556733991,28485.4326003529,1.27388660363944,103.846235542245
CAIRNHILL NINE CAIRNHILL ROAD,CAIRNHILL NINE,9,CAIRNHILL ROAD,CAIRNHILL NINE,9 CAIRNHILL ROAD CAIRNHILL NINE SINGAPORE 229723,229723,28459.1648333631,31758.4722793102,1.30348685424971,103.837444387582
THE ARC AT DRAYCOTT DRAYCOTT DRIVE,THE ARC AT DRAYCOTT,5,DRAYCOTT DRIVE,THE ARC AT DRAYCOTT,5 DRAYCOTT DRIVE THE ARC AT DRAYCOTT SINGAPORE 259420,259420,27730.4187525054,32391.7688486073,1.30921416741461,103.830896261502
THE TRILLIUM KIM SENG ROAD,THE TRILLIUM,112,KIM SENG ROAD,THE TRILLIUM,112 KIM SENG ROAD THE TRILLIUM SINGAPORE 239432,239432,27977.5832635062,30675.7781175114,1.29369535258683,103.833117155291
SOPHIA RESIDENCE SOPHIA ROAD,SOPHIA RESIDENCE,5,SOPHIA ROAD,SOPHIA RESIDENCE,5 SOPHIA ROAD SOPHIA RESIDENCE SINGAPORE 228191,228191,29690.4447693741,31547.7191841453,1.30158083491052,103.848507995671
THE ARCADIA ARCADIA ROAD,THE ARCADIA,235,ARCADIA ROAD,THE ARCADIA,235 ARCADIA ROAD THE ARCADIA SINGAPORE 289843,289843,25546.8502368992,35063.3322355319,1.33337474399547,103.811275631559
TANGLIN REGENCY TANGLIN ROAD,TANGLIN REGENCY,381,TANGLIN ROAD,TANGLIN REGENCY,381 TANGLIN ROAD TANGLIN REGENCY SINGAPORE 247965,247965,26072.3181433147,30493.193558177,1.29204406249352,103.815997544385
SKYSUITES@ANSON ENGGOR STREET,SKYSUITES@ANSON,8,ENGGOR STREET,SKYSUITES@ANSON,8 ENGGOR STREET SKYSUITES@ANSON SINGAPORE 079718,079718,29271.2908856664,28569.1783603802,1.27464397804711,103.844741587315
BELLERIVE KENG CHIN ROAD,BELLERIVE,9,KENG CHIN ROAD,BELLERIVE,9 KENG CHIN ROAD BELLERIVE SINGAPORE 258711,258711,27691.5518162213,33251.2156547792,1.31698670063917,103.830547014708
SPRING GROVE GRANGE ROAD,SPRING GROVE,53,GRANGE ROAD,SPRING GROVE,53 GRANGE ROAD SPRING GROVE SINGAPORE 249565,249565,27376.1138120359,31163.9081959128,1.29810982307445,103.827712685178
THE CAPRI STEVENS ROAD,THE CAPRI,78,STEVENS ROAD,THE CAPRI,78 STEVENS ROAD THE CAPRI SINGAPORE 257864,257864,27192.8032448441,33401.7315275092,1.31834790391547,103.826065500218
CITYLIGHTS JELLICOE ROAD,CITYLIGHTS,82,JELLICOE ROAD,CITYLIGHTS,82 JELLICOE ROAD CITYLIGHTS SINGAPORE 208741,208741,31310.8993619392,32356.5812884253,1.30889576732658,103.863068603426
GUILLEMARD VIEW GUILLEMARD ROAD,CASSIA VIEW,320,GUILLEMARD ROAD,CASSIA VIEW,320 GUILLEMARD ROAD CASSIA VIEW SINGAPORE 399746,399746,33933.0736020608,32592.9225738086,1.31103276112231,103.886630140814
LOFT@HOLLAND HOLLAND ROAD,LOFT@HOLLAND,151,HOLLAND ROAD,LOFT@HOLLAND,151 HOLLAND ROAD LOFT@HOLLAND SINGAPORE 278580,278580,23976.8687481694,32740.0548794437,1.31236368151801,103.797168759641
THE COSMOPOLITAN KIM SENG ROAD,THE COSMOPOLITAN,200,KIM SENG ROAD,THE COSMOPOLITAN,200 KIM SENG ROAD THE COSMOPOLITAN SINGAPORE 239471,239471,27899.5722875483,30906.5064474586,1.29578197832221,103.832416192541
THE MERASAGA JALAN MERAH SAGA,THE MERASAGA,23,JALAN MERAH SAGA,THE MERASAGA,23 JALAN MERAH SAGA THE MERASAGA SINGAPORE 278102,278102,24066.8402389651,32695.74660719,1.31196298484589,103.797977203404
THE INTERWEAVE KIM KEAT ROAD,THE INTERWEAVE,21,KIM KEAT ROAD,THE INTERWEAVE,21 KIM KEAT ROAD THE INTERWEAVE SINGAPORE 328805,328805,30202.7945619142,34179.4012638479,1.32538080526177,103.853111878947
THE ACACIAS SOMMERVILLE ROAD,THE ACACIAS,21,SOMMERVILLE ROAD,THE ACACIAS,21 SOMMERVILLE ROAD THE ACACIAS SINGAPORE 358246,358246,31962.4264589017,36298.4309619758,1.34454437704007,103.868923396673
SENNETT RESIDENCE PHENG GECK AVENUE,SENNETT RESIDENCE,31,PHENG GECK AVENUE,SENNETT RESIDENCE,31 PHENG GECK AVENUE SENNETT RESIDENCE SINGAPORE 348226,348226,32011.8568004305,34754.4734921623,1.33058136956768,103.869367354703
CITY SQUARE RESIDENCES KITCHENER LINK,CITY SQUARE RESIDENCES,2,KITCHENER LINK,CITY SQUARE RESIDENCES,2 KITCHENER LINK CITY SQUARE RESIDENCES SINGAPORE 207229,207229,30688.9222013168,32600.8998522572,1.31110535846664,103.857479860813
TWIN REGENCY KIM TIAN ROAD,TWIN REGENCY,26,KIM TIAN ROAD,TWIN REGENCY,26 KIM TIAN ROAD TWIN REGENCY SINGAPORE 169277,169277,27507.8017579066,29713.1897365414,1.28499003747026,103.82889598252
THOMSON EURO-ASIA THOMSON ROAD,THOMSON EURO-ASIA,150,THOMSON ROAD,THOMSON EURO-ASIA,150 THOMSON ROAD THOMSON EURO-ASIA SINGAPORE 307605,307605,29264.6434916183,33369.7574888896,1.31805872665983,103.844682051372
OUE TWIN PEAKS LEONIE HILL ROAD,OUE TWIN PEAKS,33,LEONIE HILL ROAD,OUE TWIN PEAKS,33 LEONIE HILL ROAD OUE TWIN PEAKS SINGAPORE 239197,239197,28012.1294753822,31280.8931357451,1.29916779999053,103.83342756799
THE GLYNDEBOURNE TREVOSE CRESCENT,THE GLYNDEBOURNE,38,TREVOSE CRESCENT,THE GLYNDEBOURNE,38 TREVOSE CRESCENT THE GLYNDEBOURNE SINGAPORE 297722,297722,26918.1768040918,33830.4787275828,1.32222533352038,103.823597825035
UE SQUARE RIVER VALLEY ROAD,UE SQUARE,205,RIVER VALLEY ROAD,UE SQUARE,205 RIVER VALLEY ROAD UE SQUARE SINGAPORE 238274,238274,28994.0004688632,30569.255881343,1.2927319871783,103.842250095411
AVA TOWERS AVA ROAD,AVA TOWERS,10,AVA ROAD,AVA TOWERS,10 AVA ROAD AVA TOWERS SINGAPORE 329949,329949,30054.0009979941,33830.4807252698,1.32222530186955,103.851774865079
MARINA BAY SUITES CENTRAL BOULEVARD,MARINA BAY SUITES,3,CENTRAL BOULEVARD,MARINA BAY SUITES,3 CENTRAL BOULEVARD MARINA BAY SUITES SINGAPORE 018965,018965,30095.0361812906,29199.5705350321,1.28034497999593,103.852143277672
ESPADA ST. THOMAS WALK,ESPADA,48,SAINT THOMAS WALK,ESPADA,48 SAINT THOMAS WALK ESPADA SINGAPORE 238126,238126,28380.9556323793,31079.0026272852,1.29734197095829,103.8367416335
HALLMARK RESIDENCES EWE BOON ROAD,HALLMARK RESIDENCES,17,EWE BOON ROAD,HALLMARK RESIDENCES,17 EWE BOON ROAD HALLMARK RESIDENCES SINGAPORE 259325,259325,27746.0773793254,33173.075767478,1.31628003159882,103.831036955378
VIVA VISTA SOUTH BUONA VISTA ROAD,VIVA VISTA,3,SOUTH BUONA VISTA ROAD,VIVA VISTA,3 SOUTH BUONA VISTA ROAD VIVA VISTA SINGAPORE 118136,118136,22723.7640219638,29139.7069708556,1.27980322314972,103.78590960328
SOMMERVILLE GRANDEUR FARRER DRIVE,SOMMERVILLE GRANDEUR,1,FARRER DRIVE,SOMMERVILLE GRANDEUR,1 FARRER DRIVE SOMMERVILLE GRANDEUR SINGAPORE 259275,259275,25043.1336602829,33138.0589187238,1.31596321010011,103.806749637153
VILLAGE @ PASIR PANJANG PASIR PANJANG ROAD,VILLAGE @ PASIR PANJANG,463,PASIR PANJANG ROAD,VILLAGE @ PASIR PANJANG,463 PASIR PANJANG ROAD VILLAGE @ PASIR PANJANG SINGAPORE 118797,118797,20960.5913762413,30363.5347779356,1.29087074155662,103.770066563415
ORCHID APARTMENTS ENG NEO AVENUE,ORCHID APARTMENTS,42,ENG NEO AVENUE,ORCHID APARTMENTS,42 ENG NEO AVENUE ORCHID APARTMENTS SINGAPORE 289533,289533,24132.9395526107,35108.0953145083,1.33377941780318,103.798570834569
THE BERTH BY THE COVE OCEAN DRIVE,THE BERTH BY THE COVE,228,OCEAN DRIVE,THE BERTH BY THE COVE,228 OCEAN DRIVE THE BERTH BY THE COVE SINGAPORE 098616,098616,29446.892197405,25849.5380042847,1.25004849376758,103.846319306506
SHEARES VILLE HOLT ROAD,SHEARES VILLE,9,HOLT ROAD,SHEARES VILLE,9 HOLT ROAD SHEARES VILLE SINGAPORE 249446,249446,27118.7848278144,30640.3563134037,1.2933749977748,103.825400484885
ORCHARD TOWERS CLAYMORE DRIVE,ORCHARD TOWERS,1,CLAYMORE DRIVE,ORCHARD TOWERS,1 CLAYMORE DRIVE ORCHARD TOWERS SINGAPORE 229594,229594,27572.4385528471,32211.1591541395,1.30758079522771,103.829476735628
THE VENUE RESIDENCES TAI THONG CRESCENT,THE VENUE RESIDENCES,4,TAI THONG CRESCENT,THE VENUE RESIDENCES,4 TAI THONG CRESCENT THE VENUE RESIDENCES SINGAPORE 347838,347838,31982.8031379515,34531.0027890839,1.32856038388491,103.869106262251
WHISTLER GRAND WEST COAST VALE,WHISTLER GRAND,105,WEST COAST VALE,WHISTLER GRAND,105 WEST COAST VALE WHISTLER GRAND SINGAPORE 126757,126757,19148.2053196291,33549.3829593323,1.31968194180039,103.753780624557
METRO LOFT LORONG 27 GEYLANG,METRO LOFT,5,LORONG 27 GEYLANG,METRO LOFT,5 LORONG 27 GEYLANG METRO LOFT SINGAPORE 388158,388158,33591.6310110036,32939.8501775339,1.31417031455963,103.883562175927
PARC SOMME SOMME ROAD,PARC SOMME,62,SOMME ROAD,PARC SOMME,62 SOMME ROAD PARC SOMME SINGAPORE 207877,207877,30813.47425815,32628.7134959791,1.3113568841101,103.858599024436
WATERMARK ROBERTSON QUAY RODYK STREET,WATERMARK ROBERTSON QUAY,1,RODYK STREET,WATERMARK ROBERTSON QUAY,1 RODYK STREET WATERMARK ROBERTSON QUAY SINGAPORE 238212,238212,28559.5397631098,30370.7648609392,1.29093691491922,103.838346278046
MONTEREY PARK CONDOMINIUM WEST COAST RISE,MONTEREY PARK CONDOMINIUM,21,WEST COAST RISE,MONTEREY PARK CONDOMINIUM,21 WEST COAST RISE MONTEREY PARK CONDOMINIUM SINGAPORE 127464,127464,19112.613681864,33220.3517549988,1.31670629242902,103.753460910301
NEWTON ONE NEWTON ROAD,NEWTON ONE,1,NEWTON ROAD,NEWTON ONE,1 NEWTON ROAD NEWTON ONE SINGAPORE 307943,307943,28682.6776089398,32926.4764505364,1.31404986796426,103.839452778834
THE NAVIAN JALAN EUNOS,THE NAVIAN,178,JALAN EUNOS,THE NAVIAN,178 JALAN EUNOS THE NAVIAN SINGAPORE 419530,419530,36133.1726440256,34447.9964153618,1.32780887766582,103.906399584482
DYNASTY GARDEN SIXTH AVENUE,DYNASTY GARDEN,271,SIXTH AVENUE,DYNASTY GARDEN,271 SIXTH AVENUE DYNASTY GARDEN SINGAPORE 276562,276562,23406.7562316665,33952.2144696042,1.3233259419597,103.792045837686
STUDIO 3 SHANGHAI ROAD,STUDIO 3,28,SHANGHAI ROAD,STUDIO 3,28 SHANGHAI ROAD STUDIO 3 SINGAPORE 248196,248196,27360.0541344313,30898.5412156675,1.29570993713335,103.827568387283
ONE JERVOIS JERVOIS CLOSE,ONE JERVOIS,1,JERVOIS CLOSE,ONE JERVOIS,1 JERVOIS CLOSE ONE JERVOIS SINGAPORE 249115,249115,27082.1862044986,30589.1480910461,1.29291188755951,103.825071632136
ROBINSON SUITES ROBINSON ROAD,ROBINSON SUITES,50,ROBINSON ROAD,ROBINSON SUITES,50 ROBINSON ROAD ROBINSON SUITES SINGAPORE 068882,068882,29836.7482165415,29264.7818768397,1.28093474456197,103.849822465734
EAST SHINE LORONG MELAYU,EAST SHINE,57,LORONG MELAYU,EAST SHINE,57 LORONG MELAYU EAST SHINE SINGAPORE 417026,417026,36512.9074731581,33891.403275393,1.32277514689737,103.909811553258
CONDOMINIUM DEVELOPMENT HOLLAND ROAD,,,,,,,,,,
DAKOTA RESIDENCES DAKOTA CRESCENT,DAKOTA RESIDENCES,34,DAKOTA CRESCENT,DAKOTA RESIDENCES,34 DAKOTA CRESCENT DAKOTA RESIDENCES SINGAPORE 399936,399936,33983.7607308095,32077.6388148032,1.30637270876178,103.88708549006
THE PEAK@BALMEG BALMEG HILL,THE PEAK@BALMEG,5,BALMEG HILL,THE PEAK@BALMEG,5 BALMEG HILL THE PEAK@BALMEG SINGAPORE 119913,119913,22438.6671592118,29467.5139563195,1.28276774449777,103.783347843305
THE PARC CONDOMINIUM WEST COAST WALK,THE PARC CONDOMINIUM,1,WEST COAST WALK,THE PARC CONDOMINIUM,1 WEST COAST WALK THE PARC CONDOMINIUM SINGAPORE 127158,127158,19946.534528791,32435.2136055529,1.30960601605573,103.760954311628
ONE SHENTON SHENTON WAY,ONE SHENTON,1,SHENTON WAY,ONE SHENTON,1 SHENTON WAY ONE SHENTON SINGAPORE 068803,068803,29918.0024372227,29083.4446611144,1.27929478959373,103.850552555075
R MAISON SOMMERVILLE WALK,R MAISON,1,SOMMERVILLE WALK,R MAISON,1 SOMMERVILLE WALK R MAISON SINGAPORE 357699,357699,32065.3495291257,36163.441747658,1.34332356903844,103.869848204959
VIZ AT HOLLAND QUEENSWAY,VIZ AT HOLLAND,221,QUEENSWAY,VIZ AT HOLLAND,221 QUEENSWAY VIZ AT HOLLAND SINGAPORE 276750,276750,24506.6816539159,32306.2870381046,1.30844090346115,103.801929438373
SIMS EDGE GEYLANG EAST AVENUE 2,SIMS EDGE,1,GEYLANG EAST AVENUE 2,SIMS EDGE,1 GEYLANG EAST AVENUE 2 SIMS EDGE SINGAPORE 389760,389760,34075.1367468536,33186.9446181543,1.31640485669867,103.887906763671
THE SUITES AT CENTRAL DEVONSHIRE ROAD,THE SUITES AT CENTRAL,57A,DEVONSHIRE ROAD,THE SUITES AT CENTRAL,57A DEVONSHIRE ROAD THE SUITES AT CENTRAL SINGAPORE 239897,239897,28401.482531433,31210.6868804619,1.29853287675519,103.836926078416
SCOTTS 28 SCOTTS ROAD,SCOTTS 28,28,SCOTTS ROAD,SCOTTS 28,28 SCOTTS ROAD SCOTTS 28 SINGAPORE 228223,228223,28177.9909131769,32457.5409048144,1.30980898738366,103.834917913837
THE PLAZA BEACH ROAD,UOB THE PLAZA,7500,BEACH ROAD,UOB THE PLAZA,7500 BEACH ROAD UOB THE PLAZA SINGAPORE 199590,199590,31043.8197889077,31346.0541116279,1.29975694405753,103.860668666503
THE VINES LORONG SARINA,THE VINES,12,LORONG SARINA,THE VINES,12 LORONG SARINA THE VINES SINGAPORE 416736,416736,36312.5043939538,33516.9358623941,1.31938865407237,103.908010725574
LA MAISON MOULMEIN RISE,LA MAISON,10,MOULMEIN RISE,LA MAISON,10 MOULMEIN RISE LA MAISON SINGAPORE 308125,308125,29525.9307108745,33532.8305189516,1.31953348960235,103.847029859453
CITIGATE RESIDENCE RANGOON ROAD,CITIGATE RESIDENCE,168,RANGOON ROAD,CITIGATE RESIDENCE,168 RANGOON ROAD CITIGATE RESIDENCE SINGAPORE 218437,218437,30226.5848944364,33209.217979867,1.31660680940599,103.853325577811
OKIO BALESTIER ROAD,OKIO,262,BALESTIER ROAD,OKIO,262 BALESTIER ROAD OKIO SINGAPORE 329714,329714,30212.5667923335,33820.3230320793,1.32213342822747,103.853199661872
NASSIM JADE NASSIM ROAD,NASSIM JADE,3,NASSIM ROAD,NASSIM JADE,3 NASSIM ROAD NASSIM JADE SINGAPORE 258371,258371,27179.3838737272,32106.4128616471,1.30663349872782,103.825944954631
RV RESIDENCES RIVER VALLEY ROAD,RV RESIDENCES,461,RIVER VALLEY ROAD,RV RESIDENCES,461 RIVER VALLEY ROAD RV RESIDENCES SINGAPORE 248346,248346,27457.0881144041,30747.1765681393,1.29434105033385,103.828440282424
FORTE SUITES MERGUI ROAD,FORTE SUITES,88,MERGUI ROAD,FORTE SUITES,88 MERGUI ROAD FORTE SUITES SINGAPORE 219062,219062,30075.7765724482,33344.249357488,1.31782799598861,103.851970497394
SUITES AT ORCHARD HANDY ROAD,SUITES AT ORCHARD,38,HANDY ROAD,SUITES AT ORCHARD,38 HANDY ROAD SUITES AT ORCHARD SINGAPORE 229239,229239,29406.6041792864,31419.36528695,1.30042006162394,103.845957552922
THE VISION WEST COAST CRESCENT,THE VISION,73,WEST COAST CRESCENT,THE VISION,73 WEST COAST CRESCENT THE VISION SINGAPORE 126790,126790,20402.2543766592,31180.4971394818,1.29825892605471,103.76504947778
THE MAYLEA PASIR PANJANG ROAD,THE MAYLEA,242K,PASIR PANJANG ROAD,THE MAYLEA,242K PASIR PANJANG ROAD THE MAYLEA SINGAPORE 117489,117489,22658.5093969395,29239.9072543364,1.28070938808957,103.785323249072
THE CREST PRINCE CHARLES CRESCENT,THE CREST,101,PRINCE CHARLES CRESCENT,THE CREST,101 PRINCE CHARLES CRESCENT THE CREST SINGAPORE 159017,159017,26563.5500544198,30565.1447021868,1.29269478978815,103.820411467009
L'VIV NEWTON ROAD,L'VIV,23,NEWTON ROAD,L'VIV,23 NEWTON ROAD L'VIV SINGAPORE 307955,307955,28783.06809643,33081.117577035,1.31544838531983,103.840354841468
DOMAIN 21 DELTA ROAD,DOMAIN 21,21,DELTA ROAD,DOMAIN 21,21 DELTA ROAD DOMAIN 21 SINGAPORE 169813,169813,27092.102904004,30468.2641808931,1.29181865625912,103.82516074139
GAIA JALAN DUSUN,GAIA,33,JALAN DUSUN,GAIA,33 JALAN DUSUN GAIA SINGAPORE 329371,329371,29156.3963435935,34451.8849129602,1.32784510851012,103.843709435735
ASTON MANSIONS LORONG 42 GEYLANG,ASTON MANSIONS,3,LORONG 42 GEYLANG,ASTON MANSIONS,3 LORONG 42 GEYLANG ASTON MANSIONS SINGAPORE 398026,398026,34387.5696850792,32955.4545943961,1.31431128029729,103.890714083323
SKY@ELEVEN THOMSON LANE,SKY@ELEVEN,5,THOMSON LANE,SKY@ELEVEN,5 THOMSON LANE SKY@ELEVEN SINGAPORE 297724,297724,28810.7932668356,34830.3374086954,1.33126770998936,103.840604012189
SIMS RESIDENCES LORONG 39 GEYLANG,SIMS RESIDENCES,8,LORONG 39 GEYLANG,SIMS RESIDENCES,8 LORONG 39 GEYLANG SIMS RESIDENCES SINGAPORE 387882,387882,34429.7168838298,33150.3824677579,1.31607412947418,103.891092837354
AVANT RESIDENCES ALJUNIED ROAD,AVANT RESIDENCES,10,ALJUNIED ROAD,AVANT RESIDENCES,10 ALJUNIED ROAD AVANT RESIDENCES SINGAPORE 389799,389799,33458.1611586642,32869.6374751702,1.31353535987581,103.882362870576
ARDMORE II ARDMORE PARK,ARDMORE II,1,ARDMORE PARK,ARDMORE II,1 ARDMORE PARK ARDMORE II SINGAPORE 259962,259962,27356.9189161416,32456.7452805936,1.309801785805,103.827540183798
LEEDON RESIDENCE LEEDON HEIGHTS,LEEDON RESIDENCE,2,LEEDON HEIGHTS,LEEDON RESIDENCE,2 LEEDON HEIGHTS LEEDON RESIDENCE SINGAPORE 266228,266228,24401.4026751788,32778.745565258,1.31271363894631,103.800983401533
JERVOIS REGENCY JERVOIS ROAD,JERVOIS REGENCY,49,JERVOIS ROAD,JERVOIS REGENCY,49 JERVOIS ROAD JERVOIS REGENCY SINGAPORE 249081,249081,26747.6114189476,30763.757036671,1.29449097781879,103.822065328522
PARC CENTENNIAL KAMPONG JAVA ROAD,PARC CENTENNIAL,100,KAMPONG JAVA ROAD,PARC CENTENNIAL,100 KAMPONG JAVA ROAD PARC CENTENNIAL SINGAPORE 228867,228867,29166.0252853781,32829.7495695278,1.31317508970172,103.84379589573
THE PEAK @ CAIRNHILL II CAIRNHILL CIRCLE,THE PEAK @ CAIRNHILL II,61,CAIRNHILL CIRCLE,THE PEAK @ CAIRNHILL II,61 CAIRNHILL CIRCLE THE PEAK @ CAIRNHILL II SINGAPORE 229789,229789,28514.4144671736,32270.824190611,1.30812038350771,103.837940839529
HORIZON TOWERS LEONIE HILL,HORIZON TOWERS,15,LEONIE HILL ROAD,HORIZON TOWERS,15 LEONIE HILL ROAD HORIZON TOWERS SINGAPORE 239194,239194,28006.5738172391,31183.9053749833,1.29829067681172,103.833377647901
FABER CREST FABER HEIGHTS,FABER CREST,50A,FABER HEIGHTS,FABER CREST,50A FABER HEIGHTS FABER CREST SINGAPORE 129195,129195,19469.2889989419,33979.3746578246,1.32357072236801,103.756665606511
GALLERY FIFTEEN JALAN DUSUN,GALLERY FIFTEEN,31,JALAN DUSUN,GALLERY FIFTEEN,31 JALAN DUSUN GALLERY FIFTEEN SINGAPORE 329370,329370,29155.9592739092,34420.5139941853,1.32756140104682,103.843705507242
GRANGE RESIDENCES GRANGE ROAD,GRANGE RESIDENCES,91,GRANGE ROAD,GRANGE RESIDENCES,91 GRANGE ROAD GRANGE RESIDENCES SINGAPORE 249613,249613,26860.6555278357,31781.5135095045,1.30369521339223,103.823081041412
LOFT @ NATHAN NATHAN ROAD,LOFT @ NATHAN,428,RIVER VALLEY ROAD,LOFT @ NATHAN,428 RIVER VALLEY ROAD LOFT @ NATHAN SINGAPORE 248327,248327,27365.8984280676,30760.4386062771,1.29446098581955,103.8276209036
NEWEST WEST COAST DRIVE,NEWEST,1,WEST COAST DRIVE,NEWEST,1 WEST COAST DRIVE NEWEST SINGAPORE 128020,128020,19556.7006658185,33187.9312938862,1.31641321892509,103.757451263299
THE WATERINA LORONG 40 GEYLANG,THE WATERINA,51,LORONG 40 GEYLANG,THE WATERINA,51 LORONG 40 GEYLANG THE WATERINA SINGAPORE 398075,398075,34329.6881592805,32791.6670885775,1.31283005660824,103.890193955593
KENTISH GREEN OXFORD ROAD,KENTISH GREEN,20,OXFORD ROAD,KENTISH GREEN,20 OXFORD ROAD KENTISH GREEN SINGAPORE 218815,218815,30055.3929922972,33097.8864334989,1.31559997820356,103.851787324083
THE ARTE JALAN RAJA UDANG,THE ARTE,21,JALAN RAJA UDANG,THE ARTE,21 JALAN RAJA UDANG THE ARTE SINGAPORE 329215,329215,29005.1048235139,34480.1384110227,1.32810062850729,103.842349999219
ORCHARD SCOTTS ANTHONY ROAD,ORCHARD SCOTTS,3,ANTHONY ROAD,ORCHARD SCOTTS,3 ANTHONY ROAD ORCHARD SCOTTS SINGAPORE 229953,229953,28565.6167570045,32514.1205743644,1.31032066930575,103.838400921041
CLAREMONT KILLINEY ROAD,CLAREMONT,161,KILLINEY ROAD,CLAREMONT,161 KILLINEY ROAD CLAREMONT SINGAPORE 239569,239569,28476.1461408036,30944.2944511957,1.29612371629415,103.837596960133
120 GRANGE GRANGE ROAD,120 GRANGE,120,GRANGE ROAD,120 GRANGE,120 GRANGE ROAD 120 GRANGE SINGAPORE 249600,249600,27132.401304041,31370.6037770566,1.29997909930352,103.825522814492
EDENZ SUITES LORONG 28 GEYLANG,EDENZ SUITES,21,LORONG 28 GEYLANG,EDENZ SUITES,21 LORONG 28 GEYLANG EDENZ SUITES SINGAPORE 398425,398425,33835.4676177315,32795.9974079374,1.31286931612854,103.885753141885
CLEMENTIWOODS CONDOMINIUM WEST COAST ROAD,CLEMENTIWOODS CONDOMINIUM,90,WEST COAST ROAD,CLEMENTIWOODS CONDOMINIUM,90 WEST COAST ROAD CLEMENTIWOODS CONDOMINIUM SINGAPORE 126810,126810,20679.0094739022,31020.7209890094,1.2968140340697,103.767536280823
RV SUITES RIVER VALLEY ROAD,RV SUITES,396,RIVER VALLEY ROAD,RV SUITES,396 RIVER VALLEY ROAD RV SUITES SINGAPORE 248289,248289,27564.6687008906,30886.959867863,1.29560520303559,103.829406938324
NOVENA LODGE JALAN MERLIMAU,NOVENA LODGE,2,JALAN MERLIMAU,NOVENA LODGE,2 JALAN MERLIMAU NOVENA LODGE SINGAPORE 308729,308729,28869.7131055472,33979.3321313076,1.32357151793004,103.841133415932
ST MICHAEL REGENCY ST. MICHAEL'S ROAD,SAINT MICHAEL REGENCY,38,SAINT MICHAEL'S ROAD,SAINT MICHAEL REGENCY,38 SAINT MICHAEL'S ROAD SAINT MICHAEL REGENCY SINGAPORE 328008,328008,31397.4265983319,34460.1352691595,1.32791955421654,103.86384632382
SUITES @ SHREWSBURY SHREWSBURY ROAD,SUITES @ SHREWSBURY,84,SHREWSBURY ROAD,SUITES @ SHREWSBURY,84 SHREWSBURY ROAD SUITES @ SHREWSBURY SINGAPORE 307842,307842,29734.7367877187,33385.2702845633,1.31819899592367,103.848906082215
KALLANG RIVERSIDE KAMPONG BUGIS,KALLANG RIVERSIDE,51,KAMPONG BUGIS,KALLANG RIVERSIDE,51 KAMPONG BUGIS KALLANG RIVERSIDE SINGAPORE 338986,338986,31758.2031061314,32158.5445299186,1.30710474181654,103.867087818477
PENANG SERVICE APARTMENTS LORONG 34 GEYLANG,PENANG SERVICE APARTMENTS,16,LORONG 34 GEYLANG,PENANG SERVICE APARTMENTS,16 LORONG 34 GEYLANG PENANG SERVICE APARTMENTS SINGAPORE 398213,398213,34040.7156930901,32850.739023909,1.31336434016643,103.887597407486
HOLLAND RESIDENCES TAMAN WARNA,,,,,,,,,,
RESIDENCES @ EVELYN EVELYN ROAD,SETIA RESIDENCES,11,EVELYN ROAD,SETIA RESIDENCES,11 EVELYN ROAD SETIA RESIDENCES SINGAPORE 309304,309304,28737.7681542281,33131.7914786749,1.31590666330907,103.839947799817
PARC IMPERIAL PASIR PANJANG ROAD,PARC IMPERIAL,253A,PASIR PANJANG ROAD,PARC IMPERIAL,253A PASIR PANJANG ROAD PARC IMPERIAL SINGAPORE 117422,117422,22453.1877401127,29293.7986729145,1.28119672755422,103.783478346718
THE PATERSON EDGE PATERSON ROAD,THE PATERSON EDGE,26,PATERSON ROAD,THE PATERSON EDGE,26 PATERSON ROAD THE PATERSON EDGE SINGAPORE 238518,238518,27594.5957763074,31659.6176801175,1.30259284877615,103.829675836055
VILLA DELLE ROSE TAMAN NAKHODA,VILLA DELLE ROSE,2,TAMAN NAKHODA,VILLA DELLE ROSE,2 TAMAN NAKHODA VILLA DELLE ROSE SINGAPORE 257743,257743,25142.1519789994,32536.3954494782,1.31052198796192,103.80763942241
GILSTEAD COURT GILSTEAD ROAD,GILSTEAD COURT,50C,GILSTEAD ROAD,GILSTEAD COURT,50C GILSTEAD ROAD GILSTEAD COURT SINGAPORE 309094,309094,28701.3172992086,33369.9694858473,1.31806066192041,103.839620275815
THE LADYHILL LADY HILL ROAD,THE LADYHILL,1,LADY HILL ROAD,THE LADYHILL,1 LADY HILL ROAD THE LADYHILL SINGAPORE 258670,258670,27078.6816260042,32527.0592293646,1.31043767328056,103.825040084753
BALESTIER REGENCY JALAN AMPAS,BALESTIER REGENCY,4,JALAN AMPAS,BALESTIER REGENCY,4 JALAN AMPAS BALESTIER REGENCY SINGAPORE 329505,329505,30054.173616305,34173.0748314988,1.32532360161851,103.851776439038
ST MARTIN'S APARTMENT ST. MARTIN'S DRIVE,SAINT MARTIN'S APARTMENT,1,SAINT MARTIN'S DRIVE,SAINT MARTIN'S APARTMENT,1 SAINT MARTIN'S DRIVE SAINT MARTIN'S APARTMENT SINGAPORE 257988,257988,27055.3851459045,32005.4819090404,1.30572071122629,103.824830770408
CAIRNHILL RESIDENCES CAIRNHILL CIRCLE,HELIOS RESIDENCES,15,CAIRNHILL CIRCLE,HELIOS RESIDENCES,15 CAIRNHILL CIRCLE HELIOS RESIDENCES SINGAPORE 229815,229815,28498.8220061651,32098.5720918048,1.30656259650495,103.837800731046
NATHAN SUITES NATHAN ROAD,NATHAN SUITES,21,NATHAN ROAD,NATHAN SUITES,21 NATHAN ROAD NATHAN SUITES SINGAPORE 248743,248743,27313.4469785476,30844.5029671025,1.29522123322474,103.827149602901
CAVENAGH GARDENS CAVENAGH ROAD,CAVENAGH GARDENS,69,CAVENAGH ROAD,CAVENAGH GARDENS,69 CAVENAGH ROAD CAVENAGH GARDENS SINGAPORE 229622,229622,28841.2545721652,31897.7071837056,1.3047460376708,103.840877644324
ATTITUDE AT KIM YAM KIM YAM ROAD,ATTITUDE AT KIM YAM,1,KIM YAM ROAD,ATTITUDE AT KIM YAM,1 KIM YAM ROAD ATTITUDE AT KIM YAM SINGAPORE 239319,239319,28622.0386698246,30876.8709435295,1.29551395924241,103.838907866844
AMANINDA THOMSON ROAD,AMANINDA,329,THOMSON ROAD,AMANINDA,329 THOMSON ROAD AMANINDA SINGAPORE 307674,307674,28892.8717755172,34095.8103548232,1.32462490510501,103.841341512332
BALMORAL HILLS BALMORAL PARK,BALMORAL HILLS,9,BALMORAL PARK,BALMORAL HILLS,9 BALMORAL PARK BALMORAL HILLS SINGAPORE 259844,259844,27381.7652078122,33160.2425358668,1.31616396718925,103.827763425695
VARSITY PARK CONDOMINIUM WEST COAST ROAD,VARSITY PARK CONDOMINIUM,76,WEST COAST ROAD,VARSITY PARK CONDOMINIUM,76 WEST COAST ROAD VARSITY PARK CONDOMINIUM SINGAPORE 126826,126826,20637.9703254998,30780.9276400823,1.29464541913191,103.767167582575
ROBIN RESIDENCES ROBIN DRIVE,ROBIN RESIDENCES,1,ROBIN DRIVE,ROBIN RESIDENCES,1 ROBIN DRIVE ROBIN RESIDENCES SINGAPORE 258261,258261,27424.0906849867,33415.1434829701,1.31846920213332,103.828143736822
TURQUOISE COVE DRIVE,TURQUOISE,51,COVE DRIVE,TURQUOISE,51 COVE DRIVE TURQUOISE SINGAPORE 098393,098393,28421.5389449475,25066.1677774992,1.24296399581113,103.837106213588
MILLAGE CHANGI ROAD,,,,,,,,,,
PRINCIPAL GARDEN PRINCE CHARLES CRESCENT,PRINCIPAL GARDEN,91,PRINCE CHARLES CRESCENT,PRINCIPAL GARDEN,91 PRINCE CHARLES CRESCENT PRINCIPAL GARDEN SINGAPORE 159025,159025,26706.1891686749,30592.1468007304,1.29293899351003,103.821693138843
NEWTON EDGE MAKEWAY AVENUE,NEWTON EDGE,1,MAKEWAY AVENUE,NEWTON EDGE,1 MAKEWAY AVENUE NEWTON EDGE SINGAPORE 228598,228598,28978.1148321647,32794.2189217489,1.31285376960405,103.84210742583
HELIOS RESIDENCES CAIRNHILL CIRCLE,HELIOS RESIDENCES,15,CAIRNHILL CIRCLE,HELIOS RESIDENCES,15 CAIRNHILL CIRCLE HELIOS RESIDENCES SINGAPORE 229815,229815,28498.8220061651,32098.5720918048,1.30656259650495,103.837800731046
STARLIGHT SUITES RIVER VALLEY CLOSE,STARLIGHT SUITES,11,RIVER VALLEY CLOSE,STARLIGHT SUITES,11 RIVER VALLEY CLOSE STARLIGHT SUITES SINGAPORE 238437,238437,28440.5055899769,30677.9871960357,1.29371532764206,103.837276710508
RESIDENTIAL APARTMENTS BRISTOL ROAD,,,,,,,,,,
ADRIA DERBYSHIRE ROAD,ADRIA,12,DERBYSHIRE ROAD,ADRIA,12 DERBYSHIRE ROAD ADRIA SINGAPORE 309466,309466,29440.0935239745,33191.4705594908,1.3164463549549,103.846258551824
VETRO MAR THOMA ROAD,VETRO,22A,MAR THOMA ROAD,VETRO,22A MAR THOMA ROAD VETRO SINGAPORE 328703,328703,31254.8175401846,34415.8254532386,1.32751884756176,103.862564898481
CHATELET MARGOLIOUTH ROAD,CHATELET,16A,MARGOLIOUTH ROAD,CHATELET,16A MARGOLIOUTH ROAD CHATELET SINGAPORE 258541,258541,26996.8065181728,33581.6988445595,1.31997545891749,103.824304362753
RV POINT RIVER VALLEY ROAD,RV POINT,233,RIVER VALLEY ROAD,RV POINT,233 RIVER VALLEY ROAD RV POINT SINGAPORE 238291,238291,28982.307553269,30687.4541435707,1.29380093107283,103.842145033288
OLEANDER TOWERS LORONG 1 TOA PAYOH,OLEANDER TOWERS,911,LORONG 1 TOA PAYOH,OLEANDER TOWERS,911 LORONG 1 TOA PAYOH OLEANDER TOWERS SINGAPORE 319771,319771,29200.1778015895,35060.5929830056,1.33335004690133,103.844102860065
THE RITZ-CARLTON RESIDENCES SINGAPORE CAIRNHILL CAIRNHILL ROAD,"THE RITZ-CARLTON RESIDENCES, SINGAPORE, CAIRNHILL",65,CAIRNHILL ROAD,"THE RITZ-CARLTON RESIDENCES, SINGAPORE, CAIRNHILL","65 CAIRNHILL ROAD THE RITZ-CARLTON RESIDENCES, SINGAPORE, CAIRNHILL SINGAPORE 229721",229721,28318.7952730628,32260.969994491,1.30803126826052,103.836183107285
WARNER COURT HOLLAND AVENUE,WARNER COURT,110,HOLLAND AVENUE,WARNER COURT,110 HOLLAND AVENUE WARNER COURT SINGAPORE 278966,278966,23883.5949598141,32474.7042439096,1.30996393214841,103.796330683977
DOVER PARKVIEW DOVER RISE,DOVER PARKVIEW,34,DOVER RISE,DOVER PARKVIEW,34 DOVER RISE DOVER PARKVIEW SINGAPORE 138681,138681,22491.4557940699,31994.6101941112,1.30562191514323,103.783821726393
ST MICHAEL'S PLACE JALAN TAMAN,SAINT MICHAEL'S PLACE,1,JALAN TAMAN,SAINT MICHAEL'S PLACE,1 JALAN TAMAN SAINT MICHAEL'S PLACE SINGAPORE 329022,329022,31545.6534547927,34143.4142959472,1.32505522536131,103.865178186819
ESCADA VIEW LENGKONG EMPAT,ESCADA VIEW,53,LENGKONG EMPAT,ESCADA VIEW,53 LENGKONG EMPAT ESCADA VIEW SINGAPORE 417657,417657,36920.8485822976,34579.0045120493,1.32899344664489,103.91347731741
RIVER VALLEY APARTMENTS RIVER VALLEY ROAD,RIVER VALLEY APARTMENTS,400E,RIVER VALLEY ROAD,RIVER VALLEY APARTMENTS,400E RIVER VALLEY ROAD RIVER VALLEY APARTMENTS SINGAPORE 248296,248296,27512.3381114295,30854.4430032223,1.29531113116987,103.828936725741
THE AXIS MANDALAY ROAD,THE AXIS,47,MANDALAY ROAD,THE AXIS,47 MANDALAY ROAD THE AXIS SINGAPORE 308227,308227,29851.7543867053,34095.4876073133,1.32462194319897,103.849957588255
ZEDGE AKYAB ROAD,ZEDGE,2,AKYAB ROAD,ZEDGE,2 AKYAB ROAD ZEDGE SINGAPORE 309973,309973,29653.0414717104,33852.1973982286,1.32242172407521,103.848172032797
SIGNATURE AT LEWIS LEWIS ROAD,SIGNATURE AT LEWIS,1,LEWIS ROAD,SIGNATURE AT LEWIS,1 LEWIS ROAD SIGNATURE AT LEWIS SINGAPORE 258617,258617,26874.5940554095,33677.7153359912,1.32084379385904,103.823206216568
THE CLIFT MCCALLUM STREET,THE CLIFT,21,MCCALLUM STREET,THE CLIFT,21 MCCALLUM STREET THE CLIFT SINGAPORE 069047,069047,29559.3111513574,29095.0919023212,1.27940014288617,103.847329579148
KUM HING COURT TOMLINSON ROAD,KUM HING COURT,28,TOMLINSON ROAD,KUM HING COURT,28 TOMLINSON ROAD KUM HING COURT SINGAPORE 247854,247854,27190.6388115967,31685.6642789505,1.30282839710937,103.826046096526
STEVENS LOFT STEVENS DRIVE,STEVENS LOFT,6,STEVENS DRIVE,STEVENS LOFT,6 STEVENS DRIVE STEVENS LOFT SINGAPORE 257902,257902,27240.1114980346,33355.8106376193,1.31793261282558,103.826490590389
DEVONSHIRE RESIDENCES DEVONSHIRE ROAD,DEVONSHIRE RESIDENCES,55,DEVONSHIRE ROAD,DEVONSHIRE RESIDENCES,55 DEVONSHIRE ROAD DEVONSHIRE RESIDENCES SINGAPORE 239855,239855,28448.8792276718,31245.3626998439,1.29884647201804,103.837351959315
TANGLIN PARK RIDLEY PARK,TANGLIN PARK,1,RIDLEY PARK,TANGLIN PARK,1 RIDLEY PARK TANGLIN PARK SINGAPORE 248466,248466,26079.0101221027,31405.0018574204,1.30029013610626,103.816057618756
KEMBANGAN PLAZA JALAN MASJID,KEMBANGAN PLAZA,18,JALAN MASJID,KEMBANGAN PLAZA,18 JALAN MASJID KEMBANGAN PLAZA SINGAPORE 418944,418944,36828.0112885358,33625.7467516158,1.32037255609864,103.912642849629
MOONSTONE RESIDENCES MOONSTONE LANE,MOONSTONE RESIDENCES,25,MOONSTONE LANE,MOONSTONE RESIDENCES,25 MOONSTONE LANE MOONSTONE RESIDENCES SINGAPORE 328465,328465,31644.4247867633,34369.3654602934,1.32709863575898,103.86606572723
THE AZURE OCEAN DRIVE,THE AZURE,203,OCEAN DRIVE,THE AZURE,203 OCEAN DRIVE THE AZURE SINGAPORE 098583,098583,29597.4299236191,26040.7022052109,1.25177730904166,103.847671939013
PARK INFINIA AT WEE NAM LINCOLN ROAD,PARK INFINIA AT WEE NAM,2,LINCOLN ROAD,PARK INFINIA AT WEE NAM,2 LINCOLN ROAD PARK INFINIA AT WEE NAM SINGAPORE 308342,308342,29089.0339469872,32912.8657554947,1.31392676595811,103.843104093225
18 WOODSVILLE WOODSVILLE CLOSE,18 WOODSVILLE,18,WOODSVILLE CLOSE,18 WOODSVILLE,18 WOODSVILLE CLOSE 18 WOODSVILLE SINGAPORE 357799,357799,31880.644758068,34643.7941603065,1.32958044212107,103.868188327271
THE CENTREPOINT ORCHARD ROAD,THE CENTREPOINT,176,ORCHARD ROAD,THE CENTREPOINT,176 ORCHARD ROAD THE CENTREPOINT SINGAPORE 238843,238843,28716.7630815674,31591.6722616088,1.30197836876806,103.839759023144
28 IMPERIAL RESIDENCES LORONG 26 GEYLANG,28 IMPERIAL RESIDENCES,28,LORONG 26 GEYLANG,28 IMPERIAL RESIDENCES,28 LORONG 26 GEYLANG 28 IMPERIAL RESIDENCES SINGAPORE 398495,398495,33707.7784962626,32675.5569237433,1.311780119269,103.884605770106
LUTHERAN TOWERS TAN KIM CHENG ROAD,LUTHERAN TOWERS,21,TAN KIM CHENG ROAD,LUTHERAN TOWERS,21 TAN KIM CHENG ROAD LUTHERAN TOWERS SINGAPORE 266621,266621,25685.5682246676,33782.4369298071,1.32179079194777,103.812522188467
SIXTH AVENUE CENTRE BUKIT TIMAH ROAD,SIXTH AVENUE CENTRE,805,BUKIT TIMAH ROAD,SIXTH AVENUE CENTRE,805 BUKIT TIMAH ROAD SIXTH AVENUE CENTRE SINGAPORE 279883,279883,23735.820851854,34848.3693481199,1.33143049540259,103.79500253329
THOMSON 800 THOMSON ROAD,THOMSON 800,800,THOMSON ROAD,THOMSON 800,800 THOMSON ROAD THOMSON 800 SINGAPORE 298144,298144,28417.7948861662,35875.3371250965,1.34071832478507,103.837072715179
THE QUAYSIDE ROBERTSON QUAY,THE QUAYSIDE,60,ROBERTSON QUAY,THE QUAYSIDE,60 ROBERTSON QUAY THE QUAYSIDE SINGAPORE 238252,238252,28654.4650634611,30276.3873202894,1.29008339576408,103.839199219609
PALM LODGE LORONG 37 GEYLANG,PALM LODGE,4,LORONG 37 GEYLANG,PALM LODGE,4 LORONG 37 GEYLANG PALM LODGE SINGAPORE 387902,387902,34299.7849350357,33054.353233505,1.31520570234631,103.889925313896
PEOPLE'S PARK COMPLEX PARK ROAD,OCBC PEOPLE'S PARK COMPLEX,1,PARK ROAD,OCBC PEOPLE'S PARK COMPLEX,1 PARK ROAD OCBC PEOPLE'S PARK COMPLEX SINGAPORE 059108,059108,29031.9162337584,29608.6803818271,1.28404487854559,103.842590753293
GRANGE HEIGHTS ST. THOMAS WALK,GRANGE HEIGHTS,15,SAINT THOMAS WALK,GRANGE HEIGHTS,15 SAINT THOMAS WALK GRANGE HEIGHTS SINGAPORE 238143,238143,28193.3965904573,31137.5089750718,1.29787108350456,103.835056333202
FOUR SEASONS PARK CUSCADEN WALK,FOUR SEASONS PARK,8,CUSCADEN WALK,FOUR SEASONS PARK,8 CUSCADEN WALK FOUR SEASONS PARK SINGAPORE 249692,249692,27460.3134102123,31733.2528742049,1.30325877748306,103.828469246045
THE MARBELLA MOUNT SINAI RISE,THE MARBELLA,29,MOUNT SINAI RISE,THE MARBELLA,29 MOUNT SINAI RISE THE MARBELLA SINGAPORE 276952,276952,21929.7108919332,33000.804539308,1.314721472629,103.778773989645
JERVOIS LODGE JERVOIS ROAD,JERVOIS LODGE,32,JERVOIS ROAD,JERVOIS LODGE,32 JERVOIS ROAD JERVOIS LODGE SINGAPORE 249015,249015,26907.1239352822,30669.5857117958,1.29363933147639,103.823498620439
BOTANIKA HOLLAND ROAD,BOTANIKA,50,HOLLAND ROAD,BOTANIKA,50 HOLLAND ROAD BOTANIKA SINGAPORE 258853,258853,25197.5230782283,32461.3307893239,1.30984313480362,103.808136965462
WEST BAY CONDOMINIUM WEST COAST CRESCENT,WEST BAY CONDOMINIUM,50,WEST COAST CRESCENT,WEST BAY CONDOMINIUM,50 WEST COAST CRESCENT WEST BAY CONDOMINIUM SINGAPORE 128035,128035,20468.4227013085,31223.2848995719,1.29864589931753,103.765644018841
BALMORAL GATE BALMORAL ROAD,BALMORAL GATE,33,BALMORAL ROAD,BALMORAL GATE,33 BALMORAL ROAD BALMORAL GATE SINGAPORE 259811,259811,28114.895242895,33265.4005940091,1.31711498557751,103.834350971597
RIDGEWOOD MOUNT SINAI DRIVE,RIDGEWOOD CONDOMINIUM,51,MOUNT SINAI DRIVE,RIDGEWOOD CONDOMINIUM,51 MOUNT SINAI DRIVE RIDGEWOOD CONDOMINIUM SINGAPORE 277107,277107,22040.2887049718,33244.0247990843,1.31692109145559,103.779767539494
MARINA COLLECTION COVE DRIVE,MARINA COLLECTION,13,COVE DRIVE,MARINA COLLECTION,13 COVE DRIVE MARINA COLLECTION SINGAPORE 098327,098327,28650.6285057208,25067.3016464375,1.24297424636053,103.839164641252
MUTIARA VIEW JALAN MUTIARA,MUTIARA VIEW,11,JALAN MUTIARA,MUTIARA VIEW,11 JALAN MUTIARA MUTIARA VIEW SINGAPORE 249191,249191,27461.9873810522,30861.595236972,1.29537581262615,103.828484302476
OXLEY RESIDENCE OXLEY ROAD,OXLEY THANKSGIVING RESIDENCE,328,RIVER VALLEY ROAD,OXLEY THANKSGIVING RESIDENCE,328 RIVER VALLEY ROAD OXLEY THANKSGIVING RESIDENCE SINGAPORE 238360,238360,28840.7632925212,30952.3474904075,1.29619653746501,103.840873204577
BEACON HEIGHTS MAR THOMA ROAD,BEACON HEIGHTS,8,MAR THOMA ROAD,BEACON HEIGHTS,8 MAR THOMA ROAD BEACON HEIGHTS SINGAPORE 328689,328689,31207.7959248004,34289.3536495399,1.32637508646677,103.8621423703
THE LEVELZ FARRER ROAD,THE LEVELZ,38,FARRER ROAD,THE LEVELZ,38 FARRER ROAD THE LEVELZ SINGAPORE 268836,268836,24848.0495435884,32869.2673885319,1.31353233527505,103.804996735084
THE ORANGE GROVE ORANGE GROVE ROAD,THE VANTAGE,6,ORANGE GROVE ROAD,THE VANTAGE,6 ORANGE GROVE ROAD THE VANTAGE SINGAPORE 258331,258331,27413.6514087422,32333.3356282711,1.30868571356691,103.828049955089
PINNACLE 16 SHAN ROAD,PINNACLE 16,16,SHAN ROAD,PINNACLE 16,16 SHAN ROAD PINNACLE 16 SINGAPORE 328107,328107,29436.0796261178,34081.6934882905,1.32449721645123,103.846222526379
ST FRANCIS COURT ST. FRANCIS ROAD,ST FRANCIS COURT,90,SAINT FRANCIS ROAD,ST FRANCIS COURT,90 SAINT FRANCIS ROAD ST FRANCIS COURT SINGAPORE 328071,328071,31396.0446227314,34068.7121554334,1.32437966274857,103.863833862679
GILSTEAD TWO GILSTEAD ROAD,GILSTEAD TWO,2,GILSTEAD ROAD,GILSTEAD TWO,2 GILSTEAD ROAD GILSTEAD TWO SINGAPORE 309061,309061,28572.1241616281,33027.1526677944,1.31496035037871,103.838459402687
LOFT 33 LORONG 32 GEYLANG,LOFT 33,33,LORONG 32 GEYLANG,LOFT 33,33 LORONG 32 GEYLANG LOFT 33 SINGAPORE 398293,398293,33996.5883325767,32786.5916017275,1.31278422240834,103.887200888953
GUILLEMARD SUITES GUILLEMARD ROAD,GUILLEMARD SUITES,213,GUILLEMARD ROAD,GUILLEMARD SUITES,213 GUILLEMARD ROAD GUILLEMARD SUITES SINGAPORE 399733,399733,33498.0340816546,32583.2336408813,1.31094521852726,103.882721097721
ROYALGREEN ANAMALAI AVENUE,ROYALGREEN,2,ANAMALAI AVENUE,ROYALGREEN,2 ANAMALAI AVENUE ROYALGREEN SINGAPORE 279988,279988,23652.3392102504,34869.1473806333,1.33161839267294,103.794252400987
BELMOND GREEN BALMORAL ROAD,BELMOND GREEN,13,BALMORAL ROAD,BELMOND GREEN,13 BALMORAL ROAD BELMOND GREEN SINGAPORE 259799,259799,27777.5377702611,33164.5160422195,1.31620262071228,103.831319643036
WILKIE REGENCY WILKIE TERRACE,WILKIE REGENCY,10,WILKIE TERRACE,WILKIE REGENCY,10 WILKIE TERRACE WILKIE REGENCY SINGAPORE 228030,228030,29779.487305481,31669.1188607421,1.30267872582258,103.849308090319
THE CALLISTA MAR THOMA ROAD,THE CALLISTA,22,MAR THOMA ROAD,THE CALLISTA,22 MAR THOMA ROAD THE CALLISTA SINGAPORE 328702,328702,31283.8292815061,34415.4215572644,1.32751519175502,103.86282558481
LEONIE HILL RESIDENCES LEONIE HILL ROAD,LEONIE HILL RESIDENCES,1,LEONIE HILL ROAD,LEONIE HILL RESIDENCES,1 LEONIE HILL ROAD LEONIE HILL RESIDENCES SINGAPORE 239191,239191,27989.241582795,31077.4135581404,1.29732760228353,103.83322191012
THE SIXTH AVENUE RESIDENCES SIXTH AVENUE,THE SIXTH AVENUE RESIDENCES,160,SIXTH AVENUE,THE SIXTH AVENUE RESIDENCES,160 SIXTH AVENUE THE SIXTH AVENUE RESIDENCES SINGAPORE 276537,276537,23520.2657713396,34333.1571426261,1.32677106873653,103.793065725549
RESIDENCES 88 LORONG MARICAN,RESIDENCES 88,88,LORONG MARICAN,RESIDENCES 88,88 LORONG MARICAN RESIDENCES 88 SINGAPORE 417297,417297,36290.3078523818,34278.9161893744,1.32627973484674,103.907811483759
DRAYCOTT EIGHT DRAYCOTT PARK,DRAYCOTT EIGHT,4,DRAYCOTT PARK,DRAYCOTT EIGHT,4 DRAYCOTT PARK DRAYCOTT EIGHT SINGAPORE 259387,259387,27862.2754423842,32595.4340900257,1.31105604490125,103.832081056609
THE VIRIDIAN JALAN AMPAS,THE VIRIDIAN,6,JALAN AMPAS,THE VIRIDIAN,6 JALAN AMPAS THE VIRIDIAN SINGAPORE 329507,329507,30037.5152379824,34249.0304600224,1.32601051852888,103.851626759554
CENTRA HEIGHTS SIMS AVENUE,CENTRA HEIGHTS,455,SIMS AVENUE,CENTRA HEIGHTS,455 SIMS AVENUE CENTRA HEIGHTS SINGAPORE 387607,387607,33926.8337361449,33174.6809694599,1.31629397762889,103.88657418395
SIXTEEN35 RESIDENCES LORONG 35 GEYLANG,SIXTEEN35 RESIDENCES,16,LORONG 35 GEYLANG,SIXTEEN35 RESIDENCES,16 LORONG 35 GEYLANG SIXTEEN35 RESIDENCES SINGAPORE 387946,387946,34177.6139091412,33084.0252406243,1.31547407018063,103.888827552085
VOLARI BALMORAL ROAD,VOLARI,12,BALMORAL ROAD,VOLARI,12 BALMORAL ROAD VOLARI SINGAPORE 259820,259820,27956.5480742026,33019.4036704786,1.31489027644596,103.832928141724
ALTEZ ENGGOR STREET,ALTEZ,16,ENGGOR STREET,ALTEZ,16 ENGGOR STREET ALTEZ SINGAPORE 079717,079717,29224.3218760369,28566.2991184294,1.27461794103822,103.844319553688
GLOBAL VILLE JALAN RAJA UDANG,GLOBAL VILLE,20,JALAN RAJA UDANG,GLOBAL VILLE,20 JALAN RAJA UDANG GLOBAL VILLE SINGAPORE 329192,329192,29033.3459117012,34415.5693255607,1.32751668761838,103.842603758766
THE CLAYMORE CLAYMORE ROAD,THE TATE RESIDENCES,21,CLAYMORE ROAD,THE TATE RESIDENCES,21 CLAYMORE ROAD THE TATE RESIDENCES SINGAPORE 229545,229545,27666.8950323975,32254.7332764473,1.30797486539571,103.830325471683
THE CITRINE JALAN DATOH,THE CITRINE,18,JALAN DATOH,THE CITRINE,18 JALAN DATOH THE CITRINE SINGAPORE 329415,329415,29113.486936477,34395.4980807342,1.32733516756517,103.843323869087
THE BOUTIQ KILLINEY ROAD,THE BOUTIQ,143,KILLINEY ROAD,THE BOUTIQ,143 KILLINEY ROAD THE BOUTIQ SINGAPORE 239573,239573,28614.7607634077,30997.4496010691,1.29660443035383,103.838842474051
SCOTTS SQUARE SCOTTS ROAD,DBS NTUC SCOTTS SQUARE,6,SCOTTS ROAD,DBS NTUC SCOTTS SQUARE,6 SCOTTS ROAD DBS NTUC SCOTTS SQUARE SINGAPORE 228209,228209,27962.8041032208,32020.4206118677,1.30585582603508,103.832984356543
LOFT @ STEVENS STEVENS ROAD,LOFT @ STEVENS,68,STEVENS ROAD,LOFT @ STEVENS,68 STEVENS ROAD LOFT @ STEVENS SINGAPORE 257856,257856,27210.4036838925,33345.5116534811,1.31783947169965,103.826223650676
MULBERRY TREE MOULMEIN ROAD,MULBERRY TREE,167,MOULMEIN ROAD,MULBERRY TREE,167 MOULMEIN ROAD MULBERRY TREE SINGAPORE 308092,308092,29455.1910731811,33383.6546401288,1.31818439913906,103.846394220029
MARTIN NO 38 MARTIN ROAD,MARTIN NO 38,38,MARTIN ROAD,MARTIN NO 38,38 MARTIN ROAD MARTIN NO 38 SINGAPORE 239059,239059,28528.226081091,30503.0438497271,1.29213320015397,103.838064913731
JOOL SUITES SING JOO WALK,JOOL SUITES,2,SING JOO WALK,JOOL SUITES,2 SING JOO WALK JOOL SUITES SINGAPORE 217811,217811,30403.952857581,33054.6632684637,1.31520905789978,103.854919307157
SEASCAPE COVE WAY,SEASCAPE,55,COVE WAY,SEASCAPE,55 COVE WAY SEASCAPE SINGAPORE 098307,098307,28440.5604052953,24714.6450398248,1.23978494620582,103.83727712151
IRIDIUM LINCOLN ROAD,IRIDIUM,11,LINCOLN ROAD,IRIDIUM,11 LINCOLN ROAD IRIDIUM SINGAPORE 308349,308349,29037.4069368085,33046.8116929512,1.31513812749678,103.842640203235
NINETEEN SHELFORD ROAD SHELFORD ROAD,,,,,,,,,,
MANHATTAN MANSIONS GRANGE ROAD,MANHATTAN MANSIONS,76,GRANGE ROAD,MANHATTAN MANSIONS,76 GRANGE ROAD MANHATTAN MANSIONS SINGAPORE 249580,249580,27462.5284817973,31348.6793749277,1.29978083020794,103.828489156121
THE BENCOOLEN BENCOOLEN STREET,THE BENCOOLEN,180,BENCOOLEN STREET,THE BENCOOLEN,180 BENCOOLEN STREET THE BENCOOLEN SINGAPORE 189646,189646,30229.9975490645,31556.6854084264,1.30166188823652,103.853356123694
MACKENZIE REGENCY MACKENZIE ROAD,MACKENZIE REGENCY,19,MACKENZIE ROAD,MACKENZIE REGENCY,19 MACKENZIE ROAD MACKENZIE REGENCY SINGAPORE 228678,228678,29816.4762344472,31874.5457593482,1.3045365321175,103.849640464785
RESIDENTIAL APARTMENTS JALAN KEMAMAN,,,,,,,,,,
SUNSHINE PLAZA PRINSEP LINK,SUNSHINE PLAZA,10,PRINSEP LINK,SUNSHINE PLAZA,10 PRINSEP LINK SUNSHINE PLAZA SINGAPORE 187948,187948,29918.3768824488,31424.5976224914,1.30046735366415,103.850556061949
THE VERANDAH RESIDENCES PASIR PANJANG ROAD,THE VERANDAH RESIDENCES,227,PASIR PANJANG ROAD,THE VERANDAH RESIDENCES,227 PASIR PANJANG ROAD THE VERANDAH RESIDENCES SINGAPORE 117341,117341,22627.8967819596,29117.9879067279,1.27960678744377,103.785048203742
CENTRAL GROVE GEYLANG EAST AVENUE 1,CENTRAL GROVE,1,GEYLANG EAST AVENUE 1,CENTRAL GROVE,1 GEYLANG EAST AVENUE 1 CENTRAL GROVE SINGAPORE 389778,389778,33693.096193525,33121.1743477583,1.31581012706306,103.88447392439
ASCENT @ 456 BALESTIER ROAD,ASCENT @ 456,456,BALESTIER ROAD,ASCENT @ 456,456 BALESTIER ROAD ASCENT @ 456 SINGAPORE 329832,329832,29673.9457519855,34311.2915511895,1.32657360790909,103.848359893837
SKYLINE RESIDENCES TELOK BLANGAH ROAD,SKYLINE RESIDENCES,610,TELOK BLANGAH ROAD,SKYLINE RESIDENCES,610 TELOK BLANGAH ROAD SKYLINE RESIDENCES SINGAPORE 109025,109025,25161.9272029456,28329.5701001752,1.27247694326577,103.807817491838
ASTRID MEADOWS CORONATION ROAD WEST,ASTRID MEADOWS,38,CORONATION ROAD WEST,ASTRID MEADOWS,38 CORONATION ROAD WEST ASTRID MEADOWS SINGAPORE 269257,269257,23693.0198646542,33507.3788978755,1.31930304897212,103.794618130751
MERAPRIME JALAN BUKIT HO SWEE,MERAPRIME,301,JALAN BUKIT HO SWEE,MERAPRIME,301 JALAN BUKIT HO SWEE MERAPRIME SINGAPORE 169568,169568,27384.4409278408,29941.920682244,1.28705859767551,103.82778753198
RANGOON 88 RANGOON ROAD,RANGOON 88,88,RANGOON ROAD,RANGOON 88,88 RANGOON ROAD RANGOON 88 SINGAPORE 218374,218374,30327.5840710793,32963.1990212463,1.31438189347147,103.854233088273
PARC EMILY MOUNT EMILY ROAD,PARC EMILY,5,MOUNT EMILY ROAD,PARC EMILY,5 MOUNT EMILY ROAD PARC EMILY SINGAPORE 228490,228490,29718.2525713742,31854.466554042,1.30435494846521,103.848757878309
MOONSTONE VIEW MOONSTONE LANE,MOONSTONE VIEW,31,MOONSTONE LANE,MOONSTONE VIEW,31 MOONSTONE LANE MOONSTONE VIEW SINGAPORE 328496,328496,31593.7584823873,34388.7739876155,1.3272741656029,103.865610465124
VIVA SUFFOLK WALK,VIVA,2,SUFFOLK WALK,VIVA,2 SUFFOLK WALK VIVA SINGAPORE 307462,307462,29238.232133314,33104.0611324459,1.31565586377638,103.844444721095
DOMUS IRRAWADDY ROAD,DOMUS,8,IRRAWADDY ROAD,DOMUS,8 IRRAWADDY ROAD DOMUS SINGAPORE 329564,329564,29356.6603111457,34216.1324003972,1.32571303801229,103.845508907095
DEVONSHIRE 12 DEVONSHIRE ROAD,DEVONSHIRE 12,12,DEVONSHIRE ROAD,DEVONSHIRE 12,12 DEVONSHIRE ROAD DEVONSHIRE 12 SINGAPORE 239847,239847,28523.1223239452,31158.6619068328,1.29806237939926,103.838019065206
NESS LORONG 32 GEYLANG,NESS,38,LORONG 32 GEYLANG,NESS,38 LORONG 32 GEYLANG NESS SINGAPORE 398298,398298,33949.3963689795,32777.0507095084,1.31269794714045,103.886776844129
IRESIDENCES IRRAWADDY ROAD,IRESIDENCES,20,IRRAWADDY ROAD,IRESIDENCES,20 IRRAWADDY ROAD IRESIDENCES SINGAPORE 329550,329550,29369.2543651508,34166.5184835456,1.32526434675063,103.845622069281
THE REGENCY AT TIONG BAHRU CHAY YAN STREET,THE REGENCY AT TIONG BAHRU,36,CHAY YAN STREET,THE REGENCY AT TIONG BAHRU,36 CHAY YAN STREET THE REGENCY AT TIONG BAHRU SINGAPORE 169905,169905,27693.2276334083,29367.1922982242,1.28186096037926,103.830562111061
THE PEARL @ MOUNT FABER MOUNT FABER ROAD,THE PEARL @ MT FABER,1,MOUNT FABER ROAD,THE PEARL @ MT FABER,1 MOUNT FABER ROAD THE PEARL @ MT FABER SINGAPORE 099206,099206,26978.9797048746,28154.3839440998,1.2708927315184,103.824144356363
PAYA LEBAR RESIDENCES PAYA LEBAR ROAD,PARK PLACE RESIDENCES AT PLQ,2,PAYA LEBAR ROAD,PARK PLACE RESIDENCES AT PLQ,2 PAYA LEBAR ROAD PARK PLACE RESIDENCES AT PLQ SINGAPORE 409053,409053,34613.7707721666,33124.1389756929,1.31583675363618,103.892746648427
PAVILION SQUARE GEYLANG ROAD,PAVILION SQUARE,345,GEYLANG ROAD,PAVILION SQUARE,345 GEYLANG ROAD PAVILION SQUARE SINGAPORE 389366,389366,33169.6895670677,32808.0020232275,1.31297800060859,103.879770800217
RIDGE COURT MEYAPPA CHETTIAR ROAD,RIDGE COURT,19,MEYAPPA CHETTIAR ROAD,RIDGE COURT,19 MEYAPPA CHETTIAR ROAD RIDGE COURT SINGAPORE 358459,358459,31798.9859149801,34764.6312156226,1.33067325977266,103.867454592316
PARC SOPHIA ADIS ROAD,PARC SOPHIA,8,ADIS ROAD,PARC SOPHIA,8 ADIS ROAD PARC SOPHIA SINGAPORE 229975,229975,29565.162164486,31545.7835465875,1.30156333624985,103.847382274312
MARTIN PLACE RESIDENCES MARTIN PLACE,MARTIN PLACE RESIDENCES,2,MARTIN PLACE,MARTIN PLACE RESIDENCES,2 MARTIN PLACE MARTIN PLACE RESIDENCES SINGAPORE 237988,237988,28568.6460070834,30727.3685336988,1.29416191303506,103.838428107883
THE RICHMOND ST. MICHAEL'S ROAD,THE RICHMOND,7,SAINT MICHAEL'S ROAD,THE RICHMOND,7 SAINT MICHAEL'S ROAD THE RICHMOND SINGAPORE 327950,327950,31459.7875133092,34128.9343952164,1.32492428414092,103.86440663349
HARBOUR VIEW GARDENS PASIR PANJANG ROAD,HARBOUR VIEW GARDENS,221,PASIR PANJANG ROAD,HARBOUR VIEW GARDENS,221 PASIR PANJANG ROAD HARBOUR VIEW GARDENS SINGAPORE 118582,118582,22661.6892605042,29042.0870329868,1.27892037252,103.785351854599
LUXE VILLE PASIR PANJANG ROAD,LUXE VILLE,336,PASIR PANJANG ROAD,LUXE VILLE,336 PASIR PANJANG ROAD LUXE VILLE SINGAPORE 118668,118668,21742.1568744965,30217.2868422493,1.28954829330892,103.777089281289
WATERFALL GARDENS FARRER ROAD,WATERFALL GARDENS,8,FARRER ROAD,WATERFALL GARDENS,8 FARRER ROAD WATERFALL GARDENS SINGAPORE 268820,268820,24805.6270877933,32717.2727129217,1.31215774486282,103.804615563914
NATHAN PLACE NATHAN ROAD,NATHAN PLACE,16,NATHAN ROAD,NATHAN PLACE,16 NATHAN ROAD NATHAN PLACE SINGAPORE 248742,248742,27208.47485663,30861.3600850068,1.29537368057774,103.826206382484
BEAVERTON COURT MOUNT SINAI RISE,BEAVERTON COURT,45,MOUNT SINAI RISE,BEAVERTON COURT,45 MOUNT SINAI RISE BEAVERTON COURT SINGAPORE 276958,276958,21630.8143408494,33151.0283562634,1.31607998259264,103.776088224274
STRATA ESSEX ROAD,STRATA,1,ESSEX ROAD,STRATA,1 ESSEX ROAD STRATA SINGAPORE 309329,309329,29290.4396834215,33297.9985768441,1.31740976334811,103.844913840423
ALLSWORTH PARK HOLLAND ROAD,ALLSWORTH PARK,361,HOLLAND ROAD,ALLSWORTH PARK,361 HOLLAND ROAD ALLSWORTH PARK SINGAPORE 278637,278637,22191.9734969651,33570.8318211697,1.31987664656565,103.781130442617
TYRWHITT 139 TYRWHITT ROAD,TYRWHITT 139,139,TYRWHITT ROAD,TYRWHITT 139,139 TYRWHITT ROAD TYRWHITT 139 SINGAPORE 207557,207557,30962.8371931119,32653.0701727439,1.31157714328388,103.859941125851
SUTTON PLACE FARRER ROAD,SUTTON PLACE,26,FARRER ROAD,SUTTON PLACE,26 FARRER ROAD SUTTON PLACE SINGAPORE 268830,268830,24894.7031305591,32793.6990993973,1.31284892716775,103.805415948338
ENG HOON MANSIONS ENG HOON STREET,ENG HOON MANSIONS,17,ENG HOON STREET,ENG HOON MANSIONS,17 ENG HOON STREET ENG HOON MANSIONS SINGAPORE 169767,169767,28130.6757891541,29549.0805123243,1.28350589483745,103.834492752536
D' CASITA LORONG MARZUKI,D' CASITA,38,LORONG MARZUKI,D' CASITA,38 LORONG MARZUKI D' CASITA SINGAPORE 417104,417104,36461.850166969,33794.1932265591,1.32189602855264,103.909352749897
CITY PLAZA GEYLANG ROAD,UOB CITY PLAZA BRANCH,810,GEYLANG ROAD,UOB CITY PLAZA BRANCH,810 GEYLANG ROAD UOB CITY PLAZA BRANCH SINGAPORE 409286,409286,34695.106292652,33009.7526936028,1.31480226743889,103.893477464106
LINCOLN SUITES KHIANG GUAN AVENUE,LINCOLN SUITES,1,KHIANG GUAN AVENUE,LINCOLN SUITES,1 KHIANG GUAN AVENUE LINCOLN SUITES SINGAPORE 308380,308380,29048.8561043292,33264.7009495646,1.31710864057354,103.842743087159
CHATEAU LE FAME EWE BOON ROAD,CHATEAU LE FAME,51,EWE BOON ROAD,CHATEAU LE FAME,51 EWE BOON ROAD CHATEAU LE FAME SINGAPORE 259345,259345,27545.5993263246,33206.9328681696,1.31658622093571,103.829235557723
HOLLAND PEAK HOLLAND HILL,HOLLAND PEAK,23,HOLLAND HILL,HOLLAND PEAK,23 HOLLAND HILL HOLLAND PEAK SINGAPORE 278739,278739,24414.5957325818,32338.3130771201,1.30873052505948,103.801101998594
NEEM TREE JALAN KEMAMAN,NEEM TREE,30,JALAN KEMAMAN,NEEM TREE,30 JALAN KEMAMAN NEEM TREE SINGAPORE 329341,329341,30031.0166413421,34398.9644610342,1.32736646893517,103.851568376064
CAVENAGH COURT CAVENAGH ROAD,CAVENAGH COURT,151,CAVENAGH ROAD,CAVENAGH COURT,151 CAVENAGH ROAD CAVENAGH COURT SINGAPORE 229628,229628,29094.2173089311,32468.558450887,1.30990860733718,103.843150652659
LUSH ON HOLLAND HILL HOLLAND HILL,LUSH ON HOLLAND HILL,21,HOLLAND HILL,LUSH ON HOLLAND HILL,21 HOLLAND HILL LUSH ON HOLLAND HILL SINGAPORE 278737,278737,24344.1241178839,32354.5866585653,1.30887768929861,103.800468775419
NOVENA REGENCY THOMSON ROAD,NOVENA REGENCY,275,THOMSON ROAD,NOVENA REGENCY,275 THOMSON ROAD NOVENA REGENCY SINGAPORE 307645,307645,28916.1202203268,33711.1894861516,1.32114652933088,103.841550400671
SINGA HILLS JALAN SINGA,SINGA HILLS,33,JALAN SINGA,SINGA HILLS,33 JALAN SINGA SINGA HILLS SINGAPORE 418109,418109,36342.9918205524,34704.951438643,1.33013262911561,103.908284993545
DUNEARN 386 DUNEARN ROAD,DUNEARN 386,386,DUNEARN ROAD,DUNEARN 386,386 DUNEARN ROAD DUNEARN 386 SINGAPORE 289599,289599,25609.2372428784,34075.3723225705,1.32443998997673,103.81183629155
RESIDENTIAL APARTMENTS BALMORAL PARK,,,,,,,,,,
KIM SIA COURT JALAN JINTAN,KIM SIA COURT,1,JALAN JINTAN,KIM SIA COURT,1 JALAN JINTAN KIM SIA COURT SINGAPORE 229001,229001,28065.8179168608,32026.3578887489,1.30590952063275,103.833909984178
HARBOUR VIEW TOWERS TELOK BLANGAH DRIVE,HARBOUR VIEW TOWERS,21,TELOK BLANGAH DRIVE,HARBOUR VIEW TOWERS,21 TELOK BLANGAH DRIVE HARBOUR VIEW TOWERS SINGAPORE 109258,109258,25239.4779239427,28278.2012758963,1.27201238848312,103.80851431688
GLOUCESTER MANSIONS NEWTON ROAD,GLOUCESTER MANSIONS,10,NEWTON ROAD,GLOUCESTER MANSIONS,10 NEWTON ROAD GLOUCESTER MANSIONS SINGAPORE 307947,307947,28786.6985594695,32887.033332916,1.31369315585356,103.840387458086
DORSETT RESIDENCES NEW BRIDGE ROAD,DORSETT RESIDENCES,331,NEW BRIDGE ROAD,DORSETT RESIDENCES,331 NEW BRIDGE ROAD DORSETT RESIDENCES SINGAPORE 088764,088764,28783.5054082591,29166.4261242859,1.28004529331829,103.840358673254
PALM MANSIONS PASIR PANJANG ROAD,ROYAL PALM MANSIONS,330,PASIR PANJANG ROAD,ROYAL PALM MANSIONS,330 PASIR PANJANG ROAD ROYAL PALM MANSIONS SINGAPORE 118655,118655,21851.8816752182,30249.8108198661,1.28984245033113,103.778075197163
THE RISE @ OXLEY - RESIDENCES OXLEY RISE,THE RISE @ OXLEY - RESIDENCES,,NIL,THE RISE @ OXLEY - RESIDENCES,THE RISE @ OXLEY - RESIDENCES,NIL,29102.199551329,31083.0554800369,1.29737860639544,103.843222328094
RIVER PLACE HAVELOCK ROAD,RIVER PLACE,60,HAVELOCK ROAD,RIVER PLACE,60 HAVELOCK ROAD RIVER PLACE SINGAPORE 169658,169658,28885.6364864213,30224.0109353699,1.2896097164683,103.841276389346
CRADELS LORONG LIMAU,CRADELS,10,LORONG LIMAU,CRADELS,10 LORONG LIMAU CRADELS SINGAPORE 328754,328754,30291.6489219666,34100.9667479936,1.32467146475006,103.853910277516
CITY LOFT RACE COURSE ROAD,CITY LOFT,363,RACE COURSE ROAD,CITY LOFT,363 RACE COURSE ROAD CITY LOFT SINGAPORE 218636,218636,30599.8859912185,33038.3001543209,1.31506105973759,103.856679863644
28 RC SUITES RACE COURSE LANE,28 RC SUITES,28,RACE COURSE LANE,28 RC SUITES,28 RACE COURSE LANE 28 RC SUITES SINGAPORE 218746,218746,30185.015662834,32476.6572552901,1.3099817921347,103.852952005462
THE ENCLAVE . HOLLAND HOLLAND ROAD,THE ENCLAVE . HOLLAND,131,HOLLAND ROAD,THE ENCLAVE . HOLLAND,131 HOLLAND ROAD THE ENCLAVE . HOLLAND SINGAPORE 278569,278569,24181.8964423388,32714.7899512909,1.31213522058592,103.799011037531
PAVILION 11 AKYAB ROAD,PAVILION 11,23,AKYAB ROAD,PAVILION 11,23 AKYAB ROAD PAVILION 11 SINGAPORE 309978,309978,29653.1889978638,34091.5142685547,1.32458602112842,103.848173371262
HAPPY MANSION HAPPY AVENUE NORTH,HAPPY MANSION,1,HAPPY AVENUE NORTH,HAPPY MANSION,1 HAPPY AVENUE NORTH HAPPY MANSION SINGAPORE 369736,369736,33207.688629454,34743.5364891943,1.33048227773489,103.880112568069
8 NAPIER NAPIER ROAD,8 NAPIER,8,NAPIER ROAD,8 NAPIER,8 NAPIER ROAD 8 NAPIER SINGAPORE 258502,258502,26593.7437605057,32137.0302892365,1.30691037082483,103.820682699525
BALMORAL RESIDENCES BALMORAL CRESCENT,BALMORAL RESIDENCES,12,BALMORAL CRESCENT,BALMORAL RESIDENCES,12 BALMORAL CRESCENT BALMORAL RESIDENCES SINGAPORE 259905,259905,28192.9890925922,33066.7282078452,1.31531826229036,103.835052683515
TANGLIN HILL CONDOMINIUM TANGLIN RISE,TANGLIN HILL CONDOMINIUM,1,TANGLIN RISE,TANGLIN HILL CONDOMINIUM,1 TANGLIN RISE TANGLIN HILL CONDOMINIUM SINGAPORE 247983,247983,26244.6496350411,31568.4294466451,1.30176812744062,103.817545955261
ASPEN HEIGHTS RIVER VALLEY ROAD,ASPEN HEIGHTS,261,RIVER VALLEY ROAD,ASPEN HEIGHTS,261 RIVER VALLEY ROAD ASPEN HEIGHTS SINGAPORE 238307,238307,28832.6788351424,30738.0916025583,1.29425888278719,103.840800556526
VIENTO LORONG 30 GEYLANG,VIENTO,29,LORONG 30 GEYLANG,VIENTO,29 LORONG 30 GEYLANG VIENTO SINGAPORE 398362,398362,33920.8651621677,32723.2109583803,1.31221104514144,103.886520466932
CITY REGENCY ST. MICHAEL'S ROAD,CITY REGENCY,18,SAINT MICHAEL'S ROAD,CITY REGENCY,18 SAINT MICHAEL'S ROAD CITY REGENCY SINGAPORE 327977,327977,31396.7978112381,34290.0003552791,1.32638091456349,103.86384065497
LA SUISSE SWISS VIEW,LA SUISSE,1,SWISS VIEW,LA SUISSE,1 SWISS VIEW LA SUISSE SINGAPORE 288007,288007,23116.4284257013,36529.1426748,1.34663071510795,103.789436674932
THE VERMONT ON CAIRNHILL CAIRNHILL RISE,THE VERMONT ON CAIRNHILL,12,CAIRNHILL RISE,THE VERMONT ON CAIRNHILL,12 CAIRNHILL RISE THE VERMONT ON CAIRNHILL SINGAPORE 229745,229745,28596.0261830101,32322.8557626605,1.30859093723545,103.838674160874
THE ELEMENT @ STEVENS STEVENS ROAD,THE ELEMENT @ STEVENS,72,STEVENS ROAD,THE ELEMENT @ STEVENS,72 STEVENS ROAD THE ELEMENT @ STEVENS SINGAPORE 257873,257873,27203.947946717,33375.0364976618,1.31810648379071,103.826165641799
THE SHELFORD SHELFORD ROAD,THE SHELFORD,1,SHELFORD ROAD,THE SHELFORD,1 SHELFORD ROAD THE SHELFORD SINGAPORE 288533,288533,25626.0715992581,34166.717737684,1.32526608685309,103.811987550207
FIFTY-TWO STEVENS STEVENS ROAD,FIFTY-TWO STEVENS,52,STEVENS ROAD,FIFTY-TWO STEVENS,52 STEVENS ROAD FIFTY-TWO STEVENS SINGAPORE 257848,257848,27248.9829532579,33034.227203628,1.31502432605995,103.826570312809
DAISY SUITES DAISY ROAD,DAISY SUITES,35,DAISY ROAD,DAISY SUITES,35 DAISY ROAD DAISY SUITES SINGAPORE 359455,359455,31907.3103977032,36221.5125996955,1.3438487620392,103.86842813539
SUITES@BRADDELL BRADDELL ROAD,SUITES@BRADDELL,56,BRADDELL ROAD,SUITES@BRADDELL,56 BRADDELL ROAD SUITES@BRADDELL SINGAPORE 359965,359965,31932.9406906869,36188.251929624,1.34354796106911,103.868658434784
AMARYLLIS VILLE NEWTON ROAD,AMARYLLIS VILLE,20,NEWTON ROAD,AMARYLLIS VILLE,20 NEWTON ROAD AMARYLLIS VILLE SINGAPORE 307953,307953,28902.5587107586,33000.303755518,1.31471753038515,103.841428522625
CUSCADEN RESIDENCES CUSCADEN ROAD,CUSCADEN RESIDENCES,26,CUSCADEN ROAD,CUSCADEN RESIDENCES,26 CUSCADEN ROAD CUSCADEN RESIDENCES SINGAPORE 249722,249722,27233.8361277748,31888.5779663324,1.30466347810957,103.826434239291
ROBERTSON 100 ROBERTSON QUAY,ROBERTSON 100,100,ROBERTSON QUAY,ROBERTSON 100,100 ROBERTSON QUAY ROBERTSON 100 SINGAPORE 238250,238250,28501.1191039858,30390.1346149743,1.29111208915593,103.837821344301
RIVERWALK APARTMENTS UPPER CIRCULAR ROAD,,,,,,,,,,
BIRCHWOOD MANSIONS JALAN AMPAS,BIRCHWOOD MANSIONS,3,JALAN AMPAS,BIRCHWOOD MANSIONS,3 JALAN AMPAS BIRCHWOOD MANSIONS SINGAPORE 329504,329504,29949.8989595361,34241.9921549652,1.32594687231998,103.850839479307
MIRAGE TOWER KIM SENG ROAD,MIRAGE TOWER,80,KIM SENG ROAD,MIRAGE TOWER,80 KIM SENG ROAD MIRAGE TOWER SINGAPORE 239426,239426,28104.9845667183,30486.2269579731,1.29198111835787,103.834261909893
DUET HOLLAND ROAD,DUET,78,HOLLAND ROAD,DUET,78 HOLLAND ROAD DUET SINGAPORE 258873,258873,24779.5812153928,32593.8853378352,1.31104187040367,103.804381541755
SEASUITES PASIR PANJANG ROAD,SEASUITES,252,PASIR PANJANG ROAD,SEASUITES,252 PASIR PANJANG ROAD SEASUITES SINGAPORE 118617,118617,22415.8391972324,29429.1546746586,1.28242083270185,103.783142732009
ORCHARD COURT OXLEY ROAD,ORCHARD COURT,19,OXLEY ROAD,ORCHARD COURT,19 OXLEY ROAD ORCHARD COURT SINGAPORE 238619,238619,28931.372469198,31225.6489199046,1.2986681768518,103.841687375699
HARBOURLIGHTS TELOK BLANGAH ROAD,HARBOURLIGHTS,66,TELOK BLANGAH ROAD,HARBOURLIGHTS,66 TELOK BLANGAH ROAD HARBOURLIGHTS SINGAPORE 098830,098830,26823.2023182679,27633.9274774808,1.26618589994556,103.822744661427
SUITES @ SIMS SIMS AVENUE,SMART SUITES,302,SIMS AVENUE,SMART SUITES,302 SIMS AVENUE SMART SUITES SINGAPORE 387516,387516,33645.9504491389,33047.5699362103,1.31514448371947,103.884050282732
BOTANIC GARDENS MANSION TAMAN SERASI,BOTANIC GARDENS MANSION,2,TAMAN SERASI,BOTANIC GARDENS MANSION,2 TAMAN SERASI BOTANIC GARDENS MANSION SINGAPORE 257718,257718,26422.862377611,32239.6598508228,1.30783850811916,103.819147244028
CORONA VILLE JALAN HAJI ALIAS,CORONA VILLE,35,JALAN HAJI ALIAS,CORONA VILLE,35 JALAN HAJI ALIAS CORONA VILLE SINGAPORE 268535,268535,23740.484875733,33863.9592037518,1.32252784112804,103.795044579049
THE ANSLEY MANDALAY ROAD,THE ANSLEY,33,MANDALAY ROAD,THE ANSLEY,33 MANDALAY ROAD THE ANSLEY SINGAPORE 308214,308214,29726.8242524872,33946.4761139099,1.32327434333138,103.848835015461
BLOSSOMS @ WOODLEIGH WOODLEIGH CLOSE,BLOSSOMS @ WOODLEIGH,10,WOODLEIGH CLOSE,BLOSSOMS @ WOODLEIGH,10 WOODLEIGH CLOSE BLOSSOMS @ WOODLEIGH SINGAPORE 357905,357905,31923.2961003557,35399.367693441,1.33641357462281,103.868571670355
THE MORNINGSIDE JALAN KUALA,THE MORNINGSIDE,1,JALAN KUALA,THE MORNINGSIDE,1 JALAN KUALA THE MORNINGSIDE SINGAPORE 239639,239639,28281.6290342482,30862.7646707911,1.29538639198638,103.835849138309
THE LINCOLN MODERN LINCOLN ROAD,THE LINCOLN MODERN,20,LINCOLN ROAD,THE LINCOLN MODERN,20 LINCOLN ROAD THE LINCOLN MODERN SINGAPORE 308353,308353,29083.6664346308,33067.2680373341,1.31532312585557,103.843055868846
THE VERVE JALAN RAJAH,THE VERVE,23,JALAN RAJAH,THE VERVE,23 JALAN RAJAH THE VERVE SINGAPORE 329138,329138,29649.1730417842,34438.2617172413,1.32772188246207,103.848137304369
RESIDENCES @ SOMME PETAIN ROAD,RESIDENCES @ SOMME,3,PETAIN ROAD,RESIDENCES @ SOMME,3 PETAIN ROAD RESIDENCES @ SOMME SINGAPORE 208108,208108,30826.7143217316,32645.6828778349,1.31151034798645,103.858717994436
CASA FORTUNA AH HOOD ROAD,CASA FORTUNA,36,AH HOOD ROAD,CASA FORTUNA,36 AH HOOD ROAD CASA FORTUNA SINGAPORE 329980,329980,29652.7446638625,34523.5930353291,1.32849358847465,103.848169401956
THE ANCHORAGE ALEXANDRA ROAD,THE ANCHORAGE,370A,ALEXANDRA ROAD,THE ANCHORAGE,370A ALEXANDRA ROAD THE ANCHORAGE SINGAPORE 159954,159954,24900.7364780214,30232.9089356139,1.28969004585591,103.805470415063
NOVENA COURT JALAN NOVENA BARAT,NOVENA COURT,2,JALAN NOVENA BARAT,NOVENA COURT,2 JALAN NOVENA BARAT NOVENA COURT SINGAPORE 308603,308603,28964.7189490031,33908.5985472109,1.32293182556871,103.841987091964
GRANGE INFINITE GRANGE ROAD,GRANGE INFINITE,27,GRANGE ROAD,GRANGE INFINITE,27 GRANGE ROAD GRANGE INFINITE SINGAPORE 239700,239700,28162.284099726,31309.0910315197,1.29942281142325,103.834776774582
WINDY HEIGHTS JALAN DAUD,WINDY HEIGHTS,80,JALAN DAUD,WINDY HEIGHTS,80 JALAN DAUD WINDY HEIGHTS SINGAPORE 419591,419591,36507.7846471826,34310.5135732032,1.32656543019703,103.909765638123
LA BRISA LORONG 28 GEYLANG,LA BRISA,50,LORONG 28 GEYLANG,LA BRISA,50 LORONG 28 GEYLANG LA BRISA SINGAPORE 398453,398453,33792.7591294907,32689.2779455855,1.31190419143627,103.885369365155
PALISADES PASIR PANJANG ROAD,PALISADES,294,PASIR PANJANG ROAD,PALISADES,294 PASIR PANJANG ROAD PALISADES SINGAPORE 118635,118635,22080.4940309599,29948.6335156728,1.28711875378192,103.78012942949
